"","label","latitude","longitude"
"1","ADALV",42.5,1.52
"2","ADCAN",42.57,1.58
"3","ADEAC",42.55,1.52
"4","ADENC",42.53,1.57
"5","ADESC",42.52,1.55
"6","ADLMA",42.57,1.48
"7","ADORD",42.55,1.52
"8","ADPAS",42.55,1.73
"9","ADSCO",42.5,1.5
"10","ADSJL",42.47,1.5
"11","AEABU",25.48,53.13
"210000","AEAJM",25.41131,55.46093
"12","AEAJP",26.03,56.05
"13","AEALB",25.1,55.18
"14","AEALQ",25.12,55.22
"15","AEALS",25.12,55.18
"16","AEAMF",24.38,54.48
"17","AEAMU",25.87,55.02
"18","AEARP",25.53,55.55
"310000","AEARZ",24.77698,52.56419
"19","AEAUH",24.47,54.37
"410000","AEDAS",25.14179,52.88002
"20","AEDBI",24.3,54.6
"21","AEDBP",25.62,56.27
"22","AEDER",25.27,55.32
"23","AEDHF",24.23,54.53
"510000","AEDUY",24.32187,54.133
"24","AEDWC",24.88,55.17
"25","AEDXB",25.25,55.27
"26","AEEND",24.32,54.45
"610000","AEFAT",25.21981,54.23508
"27","AEFJR",25.12,56.33
"28","AEFRP",25.25,55.25
"29","AEHAB",23.93,53.63
"30","AEHAM",25.48,55.5
"31","AEHAT",24.78,56.12
"32","AEHIL",35,33.5
"33","AEHSN",24.9,54.9
"34","AEHTL",25.98,55.93
"35","AEHZP",25.3,55.32
"36","AEJAZ",25.72,55.8
"86638","AEJEA",24.99389,55.04795
"91000","AEJED",24.18829,52.62573
"37","AEJYH",25.17,55.22
"38","AEKHL",24.83,54.67
"39","AEKLB",25.07,56.35
"40","AEKLF",25.33,56.35
"41","AEMKH",25.35,55.37
"42","AEMRP",25.27,55.28
"111000","AEMSA",25.97176,56.05441
"121000","AEMUB",25.87548,55.01132
"43","AEMZD",24.52,54.37
"44","AEOFJ",25.25,56.67
"141000","AEPRA",25.24865,55.27103
"45","AEQIW",25.57,55.55
"46","AEQWE",25,55.05
"47","AERAK",25.28,55.57
"48","AEREI",24.48,54.4
"49","AERFA",25.47,53.48
"50","AERKP",25.82,55.95
"51","AERKT",25.78,55.95
"52","AERMC",25.95,56.05
"53","AERUW",24.12,52.73
"54","AERWP",24.1,52.72
"55","AESHJ",25.35,55.38
"56","AESID",24.53,54.4
"57","AESIL",24.07,51.75
"58","AESRT",25.97,56.05
"59","AESWE",24.45,55.33
"60","AEULR",24.43,54.5
"61","AEVHT",25.62,56.27
"62","AEYAS",24.32,52.6
"63","AEZUR",24.88,53.07
"64","AFASH",32.87,66.05
"65","AFBAG",34.95,69.25
"66","AFBEP",31.55,65.45
"67","AFCBN",31.85,64.22
"68","AFCCN",34.52,65.25
"69","AFCDW",31.12,64.18
"70","AFCLN",31.88,64.18
"71","AFCSO",33.4,70.07
"72","AFCWO",32.07,67.2
"73","AFDHD",36.65,66.98
"74","AFFRO",31.62,65.65
"75","AFGAR",33.58,69.22
"76","AFISQ",34.67,61.07
"77","AFKHO",35.2,70.83
"78","AFKMU",35.4,71.42
"79","AFKWT",33.33,69.92
"80","AFLAG",31.58,64.35
"81","AFMEH",34.67,70.2
"82","AFMEY",36.9,66.92
"83","AFMWD",31.73,65.13
"84","AFMZR",36.7,67.1
"85","AFORG",32.9,69.22
"86","AFPEC",34.53,69.33
"87","AFPSD",33.68,64.85
"88","AFQAM",35.03,71.53
"89","AFQLT",32.1,66.88
"90","AFQYN",34.98,63.12
"91","AFRKH",34.88,71.92
"92","AFRMD",31.75,65.12
"93","AFSBK",31,66.4
"94","AFSDD",33.3,62.13
"95","AFSHE",37.2,69.08
"96","AFSHK",34,69.28
"97","AFSRO",33.22,69.38
"98","AFTKO",32.62,65.87
"99","AFTOW",35.25,62.28
"100","AFZHA",31.63,65.52
"181000","AGBBQ",17.64144,-61.82788
"101","AGFAM",17.02,-61.78
"102","AGPHM",17.08,-61.75
"103","AGSJO",17.12,-61.85
"201000","AIBLP",18.17174,-63.09303
"104","AICRH",18.22,-63.07
"105","AIMBB",18.17,-63.13
"106","AISOM",18.6,-63.47
"107","AIVAL",18.22,-63.05
"108","ALARG",40.12,20.22
"109","ALBQE",41.48,20.22
"110","ALBRT",40.72,19.95
"111","ALBUT",39.75,20.02
"112","ALFIE",40.73,19.57
"113","ALFUS",42.05,20.02
"114","ALGOK",40.08,20.15
"115","ALHMR",40.13,19.72
"116","ALKKU",42.08,20.42
"117","ALKRC",40.62,20.77
"118","ALLUS",40.93,19.7
"119","ALLZE",41.78,19.63
"120","ALMBR",40.7,19.87
"121","ALMIL",41.67,19.72
"122","ALNPP",41.1,20.07
"123","ALROM",41.37,19.42
"124","ALSAR",39.88,20
"125","ALSHG",41.8,19.57
"126","ALSHK",42.07,19.52
"127","ALSHZ",42.03,19.57
"128","ALVOA",40.47,19.48
"129","ALVOR",41.38,19.65
"130","AMA3A",40.58,44.35
"131","AMABO",40.27,44.78
"132","AMARA",39.83,44.68
"133","AMARG",40.25,44.17
"134","AMARM",40.02,44.48
"135","AMARV",40.15,44.02
"136","AMASH",40.3,44.35
"137","AMBRD",40.87,45.38
"138","AMBYU",40.3,44.58
"139","AMDIL",40.73,44.87
"140","AMEVN",40.18,44.52
"141","AMEZN",40.15,44.28
"142","AMGRS",39.5,46.33
"143","AMKJN",39.15,46.15
"144","AMKPN",39.2,46.4
"145","AMLWN",40.8,43.83
"146","AMMMA",40.22,45.77
"147","AMMTR",40.07,44.28
"148","AMRN4",39.75,45.17
"149","AMSPI",40.83,44.27
"150","AMVED",39.9,44.72
"151","AMVZR",40.8,44.47
"221000","ANBUB",12.19427,-69.0259
"231000","ANCRB",12.06961,-68.86089
"241000","ANFUI",12.05588,-68.83356
"251000","ANKRA",12.15338,-68.27788
"261000","ANPHI",18.02084,-63.04171
"271000","ANSMB",12.1481,-68.99892
"281000","ANWIL",12.10711,-68.93912
"152","AOARO",-6.07,11.35
"291000","AOAZZ",-7.83618,13.10454
"153","AOBAB",-14.83,12.23
"154","AOBDT",-16.6,11.73
"155","AOBEL",-8.92,13.17
"301000","AOBUG",-12.58638,13.38806
"311000","AOCAB",-5.54986,12.19319
"156","AOCEO",-11.35,15.12
"157","AOCLV",-7.45,11.57
"158","AOCPO",-7.98,13.17
"159","AOCUI",-12.98,12.98
"160","AODAL",-7.68,11.78
"161","AOETN",-6.33,12.17
"162","AOFBY",-12.62,13.2
"163","AOFLT",-5.45,12.18
"164","AOGIM",-7.53,12.17
"165","AOGIR",-7.63,11.68
"166","AOGPO",-7.83,12.12
"167","AOKOT",-5.43,11.48
"321000","AOLAD",-8.80094,13.24482
"168","AOLBT",-6.98,12.35
"331000","AOLOB",-12.35075,13.54948
"341000","AOMAL",-5.39638,12.19824
"169","AOMDZ",-6.07,15.1
"170","AOMOS",-15.17,12.15
"351000","AOMSZ",-15.19544,12.13261
"171","AOMTL",-14.73,15.03
"172","AONDF",-9.3,14.92
"173","AONGV",-17.07,15.73
"361000","AONOE",-11.18835,13.83532
"174","AONQI",-5.85,13.43
"175","AONTO",-7.27,12.85
"371000","AOPAT",-6.95207,12.4035
"176","AOPAZ",-8.35,12.1
"381000","AOPBN",-10.75145,13.7367
"391000","AOPLE",-15.80344,11.82692
"177","AOPSA",-15.13,12.13
"178","AORSN",-14.25,12.33
"179","AOSBT",-6.32,11.22
"401000","AOSOQ",-6.33107,12.2295
"180","AOSTC",-7.37,14.73
"181","AOSTL",-6.08,12.38
"411000","AOSZA",-6.11982,12.33946
"421000","AOTAK",-5.21935,12.14199
"182","AOUGO",-7.62,15.05
"183","AOVNA",-8.9,13.37
"184","AQABA",-73.05,-13.42
"185","AQAMS",-89.98,139.27
"186","AQAPT",-62.5,-59.68
"187","AQARC",-62.15,-58.47
"188","AQART",-62.18,-58.9
"189","AQBEL",-77.87,-34.62
"190","AQBHN",-62.18,-58.95
"191","AQCAS",-66.28,110.52
"192","AQCFZ",-62.08,-58.38
"193","AQCON",-75.1,123.38
"194","AQDAV",-68.57,77.97
"195","AQDDU",-66.65,140
"196","AQDMF",-77.32,39.7
"197","AQDRZ",-69.73,73.7
"198","AQESC",-62.2,-58.95
"199","AQESP",-63.38,-56.98
"200","AQGDC",-62.98,-60.68
"201","AQGWL",-62.22,-58.97
"202","AQHLY",-75.57,-26.53
"203","AQJBS",-74.6,164.2
"204","AQJCP",-62.65,-60.38
"205","AQJUB",-62.23,-58.65
"206","AQKHN",-75,0.07
"207","AQKSG",-62.22,-58.78
"208","AQLAW",-69.38,76.38
"209","AQMAW",-67.6,62.87
"210","AQMCM",-77.83,166.67
"211","AQMIR",-66.55,93
"212","AQMRB",-64.23,-56.65
"213","AQMTR",-70.75,11.73
"214","AQMZU",-74.68,164.12
"215","AQNEU",-70.63,-8.25
"216","AQNOV",-70.77,11.85
"217","AQOHG",-63.32,-57.9
"218","AQORC",-60.73,-44.73
"219","AQPFS",-63,-60.57
"220","AQPLM",-64.77,-64.05
"221","AQPRO",-69.4,76.38
"222","AQROT",-67.57,-68.12
"223","AQSBA",-77.85,166.75
"224","AQSGN",-60.72,-45.6
"225","AQSMT",-68.12,-67.1
"226","AQSNA",-71.67,-2.82
"227","AQSYW",-69,39.58
"228","AQTNM",-62.22,-58.92
"229","AQTOR",-71.88,5.15
"230","AQTRL",-72,2.53
"231","AQVKY",-65.23,-64.25
"232","AQVOS",-78.47,106.8
"233","AQWSA",-73.05,-13.42
"234","AQZGN",-69.37,76.38
"235","ARABA",-34.97,-58.08
"236","ARAC5",-27.12,-65.45
"237","ARACA",-27.47,-55.12
"238","ARACF",-34.08,-60.12
"239","ARACS",-34.48,-58.52
"240","ARADC",-37.18,-70.68
"241","ARADS",-26.82,-65.13
"242","ARADV",-34.45,-58.8
"243","ARAEA",-43.13,-71.55
"244","ARAGS",-27.43,-65.62
"245","ARAIM",-28.72,-66.82
"246","ARALE",-32.2,-64.25
"247","ARALI",-35.03,-60.28
"248","ARALL",-38.98,-67.82
"249","ARALN",-31.43,-68.52
"250","ARALO",-38.35,-68.78
"251","ARALS",-33.9,-59.38
"252","ARALZ",-33.12,-60.8
"253","ARAMA",-33.62,-64.03
"254","ARAMG",-34.82,-58.47
"255","ARANA",-28.47,-62.83
"256","ARANC",-35.57,-61.85
"257","ARAND",-27.6,-66.32
"258","ARANO",-31.22,-68.03
"259","ARAPO",-27.92,-55.77
"260","ARARG",-32.77,-61.6
"261","ARARI",-33.63,-62.42
"262","ARARN",-32.23,-60.15
"263","ARARR",-45.03,-70.83
"264","ARASA",-24.42,-64.03
"265","ARASL",-31.52,-68.42
"266","ARASO",-33.13,-60.43
"267","ARAST",-36.17,-61.88
"268","ARAVD",-33.73,-60.45
"269","ARAVE",-34.65,-58.37
"270","ARAVO",-27.12,-54.92
"271","ARAVR",-33.67,-60.62
"272","ARAVS",-29.1,-59.65
"273","ARAYO",-31.42,-63.05
"274","ARAZU",-36.78,-59.87
"275","ARBAD",-34.75,-58.4
"276","ARBAJ",-30.57,-66.15
"277","ARBAL",-31.63,-69.47
"278","ARBAR",-33.78,-59.52
"279","ARBAS",-34,-68.72
"280","ARBCA",-37.83,-58.25
"281","ARBDE",-34.33,-58.82
"282","ARBDR",-26.83,-65.17
"283","ARBEA",-33.03,-63.68
"284","ARBEC",-34.77,-58.9
"285","ARBEL",-34.55,-58.68
"286","ARBER",-34.73,-58.25
"287","ARBES",-32.53,-62.97
"288","ARBGO",-35.12,-60.5
"289","ARBHI",-38.72,-62.28
"290","ARBHO",-38.77,-61.9
"291","ARBJR",-37.67,-59.8
"292","ARBMS",-31.38,-64.17
"293","ARBOL",-33.45,-61.33
"294","ARBON",-35,-67.52
"295","ARBOU",-34.5,-58.57
"296","ARBRC",-41.15,-71.3
"297","ARBRD",-35.17,-58.23
"298","ARBRN",-34.72,-38.25
"299","ARBSB",-40.55,-62.25
"300","ARBTN",-38,-57.7
"301","ARBUE",-34.58,-58.67
"302","ARBUI",-33.35,-60.13
"303","ARBUR",-34.82,-34.82
"304","ARBUU",-26.5,-64.75
"305","ARBVA",-27.03,-65.3
"306","ARBVC",-28.5,-59.05
"307","ARBVL",-32.62,-62.7
"308","ARBVZ",-34.4,-58.7
"309","ARCAA",-32.85,-61.15
"310","ARCAB",-34.62,-58.45
"311","ARCAE",-35.03,-58.73
"312","ARCAL",-27.63,-55.48
"313","ARCAN",-34.38,-59.82
"314","ARCAO",-32.92,-64.03
"315","ARCAS",-31.5,-58.13
"316","ARCAT",-29.67,-67.38
"317","ARCAZ",-33,-61.8
"318","ARCBS",-31.48,-68.53
"319","ARCBZ",-32.82,-60.72
"320","ARCCB",-35.62,-61.35
"321","ARCCO",-34.63,-60.47
"322","ARCCP",-27.33,-65.58
"323","ARCDA",-32.75,-68.42
"324","ARCDC",-33,-68.87
"325","ARCDE",-30.73,-64.8
"326","ARCDL",-27.45,-55.75
"327","ARCDN",-33.23,-60.8
"328","ARCDP",-33.03,-68.8
"329","ARCDS",-34.3,-59.1
"330","ARCEN",-35.83,-61.43
"331","ARCEO",-32.03,-60.32
"332","ARCFY",-26.07,-65.97
"333","ARCGA",-32.82,-61.4
"334","ARCGO",-27.22,-54.97
"335","ARCHA",-30.77,-57.98
"336","ARCHO",-29.17,-67.5
"337","ARCHS",-35.57,-58.02
"338","ARCIU",-34.62,-58.53
"339","ARCLC",-45.73,-67.07
"340","ARCLN",-32.45,-61.28
"341","ARCLO",-26.8,-60.83
"342","ARCMG",-39.02,-67.73
"343","ARCMP",-34.15,-58.95
"344","ARCNL",-33.55,-62.88
"345","ARCNN",-34.87,-58.52
"346","ARCNO",-34.62,-68.28
"461000","ARCNQ",-27.49502,-58.85246
"347","ARCOA",-31.97,-60.92
"348","ARCOL",-32.22,-58.13
"349","ARCOM",-33.03,-68.98
"350","ARCON",-28.38,-57.88
"351","ARCOO",-33.88,-61.12
"352","ARCOR",-31.4,-64.18
"353","ARCOS",-27.98,-55.52
"354","ARCOU",-32.48,-58.23
"355","ARCPA",-38.92,-67.98
"356","ARCPC",-40.17,-71.35
"357","ARCPY",-39.17,-66.15
"358","ARCQO",-24.92,-65.65
"359","ARCRA",-26.78,-65.28
"481000","ARCRD",-45.86212,-67.47091
"360","ARCRL",-32.05,-61.6
"361","ARCRO",-27.47,-55
"362","ARCSA",-36.03,-56.57
"363","ARCSL",-33.05,-61.17
"364","ARCSN",-34.17,-59.8
"365","ARCSO",-24.67,-65.1
"366","ARCSS",-33.23,-61.35
"367","ARCST",-38.82,-68.07
"368","ARCSZ",-37.47,-61.92
"369","ARCTA",-28.3,-58.28
"370","ARCTL",-34.65,-58.63
"371","ARCTO",-36.4,-63.42
"372","ARCUE",-31.65,-68.28
"373","ARCUT",-38.93,-69.23
"491000","ARCVI",-46.47079,-67.4988
"374","ARCVO",-27.38,-55.03
"375","ARCVP",-26.85,-65.12
"376","ARCVY",-34.9,-60.03
"377","ARCYA",-31.47,-58.27
"378","ARCYB",-34.85,-58.05
"379","ARCZO",-31.92,-63.4
"380","ARDCU",-34.5,-58.63
"381","ARDGU",-33.9,-58.87
"382","ARDIX",-36.6,-61.75
"383","ARDKS",-34.37,-58.2
"501000","ARDME",-32.05854,-60.6453
"384","ARDOR",-32.9,-68.75
"385","ARDSU",-34.65,-58.33
"386","AREBA",-33.77,-69.07
"387","AREBO",-24.73,-65.1
"388","AREEA",-34.87,-57.88
"389","AREHL",-41.97,-71.52
"390","AREJO",-35.45,-60.88
"391","ARELB",-27.92,-65.88
"392","ARELP",-32.83,-68.78
"393","AREMX",-42.05,-71.17
"394","AREPA",-34.53,-58.6
"395","AREPL",-34.77,-58.25
"396","ARESE",-34.8,-58.47
"397","ARESP",-31.45,-60.93
"398","ARETL",-32.18,-61.72
"399","ARETP",-34.45,-58.65
"400","AREVA",-34.85,-58.9
"401","AREZA",-34.83,-58.52
"402","AREZE",-34.83,-58.52
"403","ARFAM",-27.05,-65.4
"404","ARFBE",-33.02,-68.65
"405","ARFEN",-31,-57.9
"406","ARFER",-27.92,-63.9
"407","ARFLB",-32.78,-60.73
"408","ARFLO",-34.88,-58.82
"511000","ARFMA",-26.18157,-58.16326
"409","ARFNS",-32.92,-60.82
"410","ARFRK",-31.58,-60.93
"411","ARFRR",-31.45,-64.1
"412","ARFRT",-31.13,-62.8
"413","ARFRY",-31.15,-62.08
"414","ARFTE",-50.27,-72.05
"415","ARGAR",-34.42,-58.75
"416","ARGBE",-35.77,-58.5
"417","ARGBG",-34.48,-58.72
"418","ARGCA",-32.8,-63.87
"419","ARGCR",-32.93,-68.83
"420","ARGDG",-32.95,-68.78
"421","ARGDL",-32.73,-63.77
"422","ARGEO",-33.12,-68.88
"423","ARGGL",-24.67,-65.05
"424","ARGHU",-33.02,-58.52
"425","ARGLS",-33.1,-60.57
"426","ARGLV",-36.4,-56.97
"427","ARGMA",-36.98,-57.12
"428","ARGNR",-39.03,-67.58
"429","ARGOB",-32.95,-68.85
"430","ARGOC",-34.77,-58.62
"431","ARGOD",-34.67,-59.35
"432","ARGPC",-35.45,-58.65
"433","ARGRB",-32.85,-60.7
"434","ARGRC",-27.18,-55.47
"435","ARGRD",-34.62,-58.95
"436","ARGRM",-32.18,-60.2
"437","ARGRU",-27.48,-55.83
"438","ARGUM",-27.32,-65.33
"439","ARGUR",-33.67,-60.4
"440","ARGUY",-33.15,-59.33
"441","ARGVA",-35,-67.65
"442","ARGVL",-32.02,-61.22
"443","ARGYM",-32.9,-68.78
"444","ARHAE",-34.63,-58.58
"445","ARHER",-32.42,-63.73
"446","ARHIC",-23.2,-63.57
"447","ARHUG",-33.8,-61.33
"448","ARHUM",-31.42,-61.08
"449","ARHUR",-34.6,-58.63
"450","ARHVB",-36.08,-61.42
"451","ARIAL",-35.85,-58.2
"452","ARIBY",-33.73,-59.17
"453","ARICA",-33.97,-59.67
"454","ARICV",-34.72,-58.57
"455","ARIGI",-33.12,-68.42
"456","ARIGR",-25.57,-54.57
"457","ARILH",-39.08,-67.23
"458","ARIMZ",-34.37,-58.73
"459","ARINW",-38.78,-62.27
"460","ARIQO",-32.97,-68.75
"461","ARITZ",-34.67,-58.67
"462","ARJEC",-25.08,-65.47
"463","ARJGR",-34.7,-58.38
"464","ARJJL",-34.88,-58.18
"465","ARJLF",-34.5,-58.68
"466","ARJMG",-34.85,-58.02
"467","ARJMJ",-32.7,-62.1
"468","ARJNI",-34.58,-60.97
"469","ARJNR",-35.02,-59.27
"470","ARJPT",-46.8,-67.97
"471","ARJPX",-32.88,-62.67
"472","ARJPZ",-34.5,-58.75
"473","ARJRC",-39.02,-64.08
"474","ARJSM",-44.03,-70.48
"475","ARJTR",-32.93,-63.25
"476","ARJUA",-31.27,-64.17
"477","ARJUN",-39.93,-71.08
"478","ARLAP",-32.68,-61.53
"479","ARLAR",-34.63,-58.8
"480","ARLAT",-27.73,-64.2
"481","ARLAV",-28.2,-65.13
"482","ARLBA",-38.15,-58.78
"483","ARLBL",-31.32,-64.22
"484","ARLCH",-31.17,-58.18
"485","ARLCP",-38.07,-70.62
"486","ARLCR",-31.33,-64.33
"487","ARLCS",-33.3,-68.03
"488","ARLCT",-33.43,-63.3
"489","ARLCU",-33.05,-68.87
"490","ARLDM",-34.65,-58.53
"491","ARLES",-27.12,-59.45
"492","ARLFL",-31.08,-64.5
"493","ARLFR",-34.75,-58.58
"494","ARLGN",-34.8,-58.45
"495","ARLGS",-35.47,-69.58
"496","ARLHE",-32.85,-68.82
"497","ARLHG",-33.1,-64.28
"498","ARLHR",-34.53,-58.58
"499","ARLIM",-34.05,-59.2
"500","ARLLM",-33.73,-69.12
"501","ARLLO",-34.78,-58.43
"502","ARLMC",-35.87,-57.9
"503","ARLMZ",-34.77,-58.38
"504","ARLNO",-27.6,-55.32
"505","ARLNS",-34.7,-58.4
"506","ARLPA",-30.75,-59.65
"507","ARLPD",-34.58,-68.45
"508","ARLPG",-34.85,-57.88
"509","ARLPM",-33.47,-67.55
"510","ARLPS",-34.02,-59.12
"511","ARLQU",-22.1,-65.62
"512","ARLRS",-27.22,-65.53
"513","ARLTA",-33.05,-65.62
"514","ARLTV",-33.15,-67.35
"515","ARLUJ",-34.57,-59.1
"516","ARLUL",-26.93,-65.35
"517","ARLUQ",-33.3,-66.35
"518","ARLVL",-31.32,-64.28
"519","ARLZG",-32.95,-68.82
"520","ARMAC",-37.13,-63.67
"521","ARMAQ",-39.07,-67.3
"522","ARMAR",-34.48,-58.5
"523","ARMCR",-31.35,-63.95
"524","ARMDE",-34.67,-58.5
"525","ARMDQ",-38.05,-57.53
"526","ARMED",-27.53,-67.6
"527","ARMGA",-31.65,-59.9
"528","ARMGD",-35.02,-57.62
"529","ARMIL",-31.02,-65.98
"530","ARMJH",-34.63,-58.6
"531","ARMML",-33.2,-62.6
"532","ARMNT",-34.72,-58.35
"533","ARMOC",-30.63,-57.97
"534","ARMOQ",-35.08,-59.8
"535","ARMOR",-34.63,-58.78
"536","ARMPO",-34.28,-60.23
"537","ARMPU",-32.98,-68.8
"538","ARMQO",-25.8,-62.87
"539","ARMRN",-34.63,-58.62
"540","ARMRO",-34.93,-59.05
"541","ARMRT",-34.57,-58.58
"542","ARMTC",-26.55,-54.75
"543","ARMTH",-34.62,-59.38
"544","ARMUN",-34.53,-58.55
"545","ARMYR",-33.02,-68.87
"546","ARNCL",-52.92,-65.38
"561000","ARNEC",-38.57665,-58.7112
"547","ARNES",-22.6,-63.82
"548","ARNIN",-33.15,-68.48
"549","ARNNA",-29.3,-67.5
"550","ARNOG",-32.38,-59.78
"551","ARNOS",-25.42,-66.32
"552","ARNQN",-38.95,-68.07
"553","AROBA",-27.47,-55.12
"554","AROCT",-31.92,-63.67
"555","ARODN",-33.03,-60.75
"556","ARODR",-34.5,-59.08
"557","ARORE",-34.62,-58.53
"558","AROVI",-36.88,-60.33
"571000","AROYA",-29.1234,-59.25969
"559","AROYO",-38.38,-60.28
"560","ARPAL",-32.65,-60.75
"561","ARPAS",-32.75,-63.33
"562","ARPCO",-41.7,-65
"563","ARPDC",-45.8,-68.08
"564","ARPDM",-32.03,-62.92
"565","ARPDT",-34.75,-62.97
"566","ARPED",-33.08,-68.88
"567","ARPEH",-35.82,-61.9
"568","ARPEL",-26.35,-54.68
"569","ARPGO",-33.88,-60.57
"570","ARPGU",-37.62,-62.42
"571","ARPLA",-29.02,-59.18
"572","ARPLR",-34.43,-58.9
"573","ARPLT",-38.97,-68.23
"574","ARPLU",-39.48,-62.68
"575","ARPMA",-33.05,-68.57
"576","ARPME",-36.83,-56.67
"577","ARPML",-33.77,-60.1
"578","ARPMN",-26.95,-55.13
"579","ARPMO",-34.6,-58.37
"580","ARPMY",-42.75,-65.03
"581","ARPOM",-28.4,-66.22
"582","ARPP9",-34.6,-58.52
"583","ARPPL",-24.25,-65.2
"601000","ARPQU",-50.1218,-68.40857
"584","ARPRA",-31.73,-60.53
"585","ARPRQ",-34.55,-58.5
"586","ARPRS",-38.93,-62.07
"587","ARPRZ",-32.98,-60.75
"621000","ARPSS",-27.35399,-55.91408
"588","ARPTC",-27.38,-59.08
"589","ARPTN",-34.77,-58.15
"590","ARPUD",-47.75,-65.9
"591","ARPUR",-26.8,-55.03
"592","ARPVA",-32.85,-69.75
"593","ARPWA",-25.97,-54.6
"594","ARQBR",-32.65,-60.72
"595","ARQQN",-38.53,-58.7
"596","ARQUI",-34.72,-58.27
"597","ARRAF",-31.27,-61.48
"651000","ARRAM",-33.47639,-59.99797
"598","ARRCQ",-29.15,-59.65
"599","ARRCU",-33.13,-64.35
"600","ARRDC",-32.92,-68.73
"601","ARRDE",-34.73,-58.38
"602","ARRDL",-24.98,-65.58
"603","ARRDM",-26.98,-55.05
"604","ARRDR",-32.98,-68.68
"605","ARRFN",-34.27,-62.7
"606","ARRFO",-25.8,-64.97
"607","ARRGA",-53.78,-67.7
"608","ARRGL",-51.63,-69.22
"609","ARRHD",-27.57,-64.95
"610","ARRIC",-52.8,-68.18
"611","ARRIV",-33.18,-68.47
"612","ARRLA",-36.65,-61.08
"613","ARRLO",-32.35,-65.02
"614","ARRMJ",-34.65,-58.55
"615","ARRNG",-34.88,-57.98
"616","ARROC",-34.85,-57.93
"617","ARROJ",-34.18,-60.73
"618","ARROL",-32.88,-60.9
"619","ARROS",-32.95,-60.65
"620","ARROY",-45.68,-70.27
"621","ARRRS",-31.77,-60.85
"622","ARRSF",-32.65,-60.73
"623","ARRSG",-31.65,-63.9
"624","ARRTO",-32.17,-64.12
"625","ARRWO",-43.3,-65.1
"626","ARRXV",-31.73,-61.1
"627","ARRYO",-51.53,-72.3
"628","ARRZA",-50.02,-68.42
"629","ARSA2",-31.67,-60.77
"630","ARSAA",-31.48,-64.52
"631","ARSAE",-40.8,-64.73
"632","ARSAG",-34.45,-59.43
"633","ARSAJ",-32.18,-58.2
"634","ARSAN",-27.33,-55.58
"635","ARSAO",-34.25,-59.47
"636","ARSAP",-34.65,-58.68
"637","ARSAR",-34.67,-58.33
"638","ARSAT",-34.57,-58.52
"639","ARSCA",-33.77,-69.03
"640","ARSDR",-34.72,-68.23
"691000","ARSFE",-34.44358,-58.5353
"641","ARSFN",-31.6,-60.68
"642","ARSFO",-31.42,-62.07
"643","ARSFS",-34.77,-58.3
"644","ARSFV",-28.47,-65.77
"645","ARSIA",-33.9,-61.7
"646","ARSIG",-27.27,-55.57
"647","ARSIS",-34.47,-58.52
"648","ARSJG",-31.9,-61.87
"649","ARSJL",-49.3,-67.72
"650","ARSJM",-25.48,-64.95
"651","ARSJO",-34.67,-58.55
"652","ARSJR",-30.58,-59.95
"653","ARSJV",-27.88,-55.13
"654","ARSLL",-35.63,-59.77
"711000","ARSLO",-32.73494,-60.72839
"655","ARSLU",-31.53,-68.48
"656","ARSMA",-32.72,-60.73
"657","ARSMC",-26.82,-65.2
"658","ARSMG",-34.47,-58.98
"659","ARSMM",-35.45,-58.8
"660","ARSMR",-33.07,-68.47
"661","ARSNG",-31.97,-64.37
"662","ARSNN",-34.55,-58.52
"663","ARSNP",-33.67,-59.65
"664","ARSNS",-33.33,-60.23
"665","ARSPD",-33.68,-59.17
"666","ARSSA",-31.62,-58.5
"667","ARSSJ",-24.18,-65.3
"668","ARSSN",-53.3,-68.47
"669","ARSTA",-33.25,-68.15
"670","ARSTL",-31.53,-68.48
"671","ARSUI",-34.77,-59.68
"672","ARSUS",-30.93,-61.57
"673","ARSVE",-26.62,-54.13
"674","ARSZQ",-34.6,-58.53
"675","ARTAB",-34.7,-58.53
"676","ARTEM",-34.75,-58.37
"677","ARTEO",-34.18,-61.53
"678","ARTGR",-34.42,-58.58
"679","ARTIC",-32.7,-63.45
"680","ARTOR",-38.1,-62.23
"681","ARTOT",-34.47,-58.75
"682","ARTPL",-34.7,-58.52
"683","ARTPV",-34.8,-58.2
"684","ARTRS",-34.85,-58.57
"685","ARTTD",-29.23,-61.77
"686","ARTUC",-26.82,-65.22
"687","ARTUN",-33.57,-69.02
"688","ARTVJ",-26.73,-65.27
"689","ARUKD",-36.35,-60.02
"690","ARULA",-49.3,-67.72
"691","ARULP",-36.5,-63.83
"692","ARURA",-33.27,-60.7
"693","ARURD",-32.68,-58.88
"694","ARURH",-33.22,-68.88
"695","ARUSA",-32.58,-69.33
"696","ARUSH",-54.8,-68.3
"697","ARUZU",-29.78,-58.05
"698","ARVAA",-34.67,-58.4
"699","ARVAD",-34.5,-58.53
"700","ARVAL",-38.75,-68.18
"701","ARVBA",-34.53,-58.55
"702","ARVBS",-34.58,-58.57
"703","ARVCA",-34,-61.6
"704","ARVCH",-29.47,-67.5
"705","ARVCL",-34.72,-58.48
"706","ARVCN",-33.23,-60.33
"707","ARVCP",-31.4,-64.52
"708","ARVDP",-34.83,-58.63
"709","ARVDY",-33.03,-59.02
"710","ARVED",-34.48,-61.55
"711","ARVEL",-32.17,-58.4
"712","ARVFL",-33.63,-69.15
"713","ARVGB",-34.78,-58.38
"714","ARVGG",-33.02,-60.62
"715","ARVHE",-31.23,-59.98
"716","ARVIA",-34.45,-58.53
"717","ARVIL",-31.87,-60
"718","ARVIM",-34.68,-58.48
"719","ARVIN",-34.67,-58.52
"720","ARVLA",-39.88,-62.58
"721","ARVLD",-34.68,-58.32
"722","ARVLI",-40.78,-71.67
"723","ARVLL",-31.3,-64.3
"724","ARVLO",-34.52,-58.48
"725","ARVLP",-31.38,-64.2
"726","ARVLR",-34.42,-58.87
"727","ARVLU",-31.65,-63.37
"728","ARVLV",-30.38,-60.42
"729","ARVLY",-36.6,-61.37
"730","ARVLZ",-34.65,-58.58
"731","ARVME",-33.67,-65.47
"732","ARVMP",-34.57,-58.52
"733","ARVMR",-32.42,-63.25
"734","ARVMZ",-30.4,-68.12
"735","ARVNA",-32.43,-63.25
"736","ARVNT",-33.73,-61.97
"737","ARVRE",-39.1,-67.08
"738","ARVRS",-31.58,-63.53
"739","ARVST",-33.02,-68.88
"740","ARVTS",-34.6,-58.63
"741","ARWIL",-34.7,-58.32
"742","ARWNL",-34.6,-59.17
"743","ARXLM",-33.17,-61.08
"771000","ARXPD",-33.68589,-59.64063
"744","ARXSA",-39.08,-67.15
"745","ARZAE",-34.1,-59.03
"746","ARZAG",-34.55,-58.53
"747","ARZAI",-23.22,-64.1
"748","ARZON",-31.55,-68.73
"749","ASAPI",-13.83,-171.73
"750","ASPPG",14.27,-170.7
"751","AT4ST",47.38,11.28
"752","AT6KS",46.85,15.6
"753","AT6NR",48.35,14.42
"754","AT6TA",48,14.73
"755","AT7PZ",48.2,15.52
"756","AT7ST",47.37,11.83
"757","AT7TA",47.3,11.13
"758","AT8HN",48.07,14.67
"759","ATA9Z",48.43,15.98
"760","ATABC",46.75,12.53
"761","ATABG",48.08,16.43
"762","ATABK",47.73,-12.5
"763","ATABM",48.07,14.75
"764","ATABS",47.3,11.5
"765","ATABT",47.55,13.35
"766","ATABU",47.4,9.88
"767","ATACH",46.58,14.03
"768","ATACK",47.52,11.7
"769","ATADD",48.22,14.57
"770","ATADG",48.17,14.82
"771","ATADO",47.57,14.45
"772","ATADS",48,14.33
"773","ATADU",47.77,17.03
"774","ATAED",47.83,15.58
"775","ATAFR",46.72,13.8
"776","ATAGG",48.28,15.42
"777","ATAGM",48.3,15.4
"778","ATAGZ",48.37,14.33
"779","ATAHI",48.25,13.23
"780","ATAHO",46.87,14.48
"781","ATAHZ",48.52,13.73
"782","ATAIG",48.63,13.95
"783","ATAIN",48.5,13.9
"784","ATAKV",48.28,14.1
"785","ATAL4",48.33,16.23
"786","ATAL9",47.4,11.95
"787","ATALB",47.87,16.98
"788","ATALE",48.68,15.32
"789","ATALH",46.9,15.55
"790","ATALK",47.37,13.42
"791","ATALL",48.15,14.17
"792","ATALT",47.15,14.23
"793","ATALZ",48.25,13.45
"794","ATAMS",48.67,16.53
"795","ATAMU",47.9,13.75
"796","ATAND",48.28,16.53
"797","ATANG",47.53,16.28
"798","ATANI",47.75,13.07
"799","ATANR",47.27,15.68
"800","ATANS",48.2,14.28
"801","ATANT",47.12,10.27
"802","ATAOT",46.55,13.7
"803","ATAPG",47.55,16.08
"804","ATAPT",47.75,16.83
"805","ATARB",48.07,16.7
"806","ATARG",47.87,13.02
"807","ATARI",48.22,14.7
"808","ATARN",47.98,14.12
"809","ATARO",47.12,15.68
"810","ATARV",46.77,14.82
"811","ATASC",48.37,14.03
"812","ATATB",48.08,13.7
"813","ATATG",48.15,15.92
"814","ATATH",47.35,9.65
"815","ATATK",46.7,13.63
"816","ATATN",48.22,14.4
"817","ATATP",48,13.72
"818","ATATS",47.63,13.77
"819","ATATT",48.12,14.87
"820","ATATZ",48.28,15.9
"821","ATAUE",47.58,13.77
"822","ATAWD",48.27,14.43
"823","ATAWG",47.98,14.22
"824","ATAWH",48.38,15.85
"825","ATAZX",47.5,14.1
"826","ATB7B",47.2,15.98
"827","ATB9G",47.02,15.5
"828","ATBAG",48.12,16.3
"829","ATBB9",47.22,16.4
"830","ATBBG",46.58,14.8
"831","ATBBN",47.93,16.72
"832","ATBDA",47.13,15.33
"833","ATBDG",48.13,16.9
"834","ATBDH",41.5,12.1
"835","ATBDN",48,16.23
"836","ATBDS",47.2,16.37
"837","ATBE8",47.82,13.22
"838","ATBES",47.83,13.02
"839","ATBFI",47.83,16.17
"840","ATBFL",48.52,14.28
"841","ATBFS",47.42,13.22
"842","ATBFW",48.13,16.15
"843","ATBGA",47.12,13.13
"844","ATBGH",46.7,15.58
"845","ATBGK",48.2,13.1
"846","ATBGM",47.63,13.62
"847","ATBGN",47.45,16.57
"848","ATBGT",48.22,14.73
"849","ATBGW",47.5,16.28
"850","ATBHK",48.23,14.02
"851","ATBHL",48.03,14.2
"852","ATBIB",47.73,16.5
"853","ATBIE",48.08,16.35
"854","ATBIS",48.33,16.35
"855","ATBKA",46.62,13.63
"856","ATBKB",46.68,15.98
"857","ATBKD",47.35,15.68
"858","ATBLU",47.15,9.82
"859","ATBMB",48.03,14.5
"860","ATBMF",47.55,13.92
"861","ATBND",47.1,9.73
"862","ATBNN",48.5,16.57
"863","ATBNT",48.13,14.98
"864","ATBOE",47.98,14.75
"865","ATBRA",48.25,13.03
"866","ATBRB",47.68,15.12
"867","ATBRD",48.53,15.32
"868","ATBRG",47.28,12.82
"869","ATBRH",47.73,16.2
"870","ATBRI",48.45,15.75
"871","ATBRN",47.33,14.98
"872","ATBRU",47.42,15.28
"873","ATBRZ",47.5,9.77
"874","ATBSB",47.77,16.33
"875","ATBSH",48.23,13.92
"876","ATBSL",46.95,14.78
"877","ATBSZ",48.08,13.8
"878","ATBTE",48.28,16.03
"879","ATBTH",48.25,13.97
"880","ATBTU",47.73,16.15
"881","ATBUC",48.12,15.03
"882","ATBUG",47.2,16.15
"883","ATBVL",47.95,16.22
"884","ATBVU",47.67,13.13
"885","ATBWA",48.5,16.07
"886","ATBWD",48.68,15.52
"887","ATBWN",48.07,13.9
"888","ATBXG",47.42,11.87
"889","ATBXT",47.45,12.25
"890","ATCH8",47.42,15
"891","ATD2L",48.27,13.4
"892","ATD4S",48.52,13.88
"893","ATDAM",47.28,9.88
"894","ATDBL",46.95,15.37
"895","ATDDT",46.73,13.07
"896","ATDER",48.43,15.68
"897","ATDEU",46.82,15.22
"898","ATDFC",48.35,14.45
"899","ATDFF",48.27,13.62
"900","ATDFL",47,15.47
"901","ATDIA",48.08,14.42
"902","ATDKZ",47.6,16.63
"903","ATDOF",48.45,15.72
"904","ATDOR",47.42,9.72
"905","ATDRA",48.75,-16.65
"906","ATDRF",48.28,13.62
"907","ATDRO",48.45,15.57
"908","ATDSH",47.2,9.78
"909","ATDSU",48.02,13.77
"910","ATDSZ",47.17,16.45
"911","ATDTD",48.08,14.42
"912","ATDUE",48.38,15.52
"913","ATDUR",48.47,16.85
"914","ATDWA",48.3,16.57
"915","ATEAJ",48.37,15.37
"916","ATEAK",48.43,15.73
"917","ATEBB",47.63,12.22
"918","ATEBD",47.2,15.95
"919","ATEBE",48.03,16.52
"920","ATEBN",47.63,16.08
"921","ATEBR",47.95,16.4
"922","ATEBS",47.8,13.77
"923","ATEBU",46.63,15.82
"924","ATEBZ",48.03,13.97
"925","ATECU",47.48,10.7
"926","ATEDZ",48.12,15.5
"927","ATEFH",47.87,16.37
"928","ATEFR",48.32,14.02
"929","ATEGB",48.07,12.98
"930","ATEGG",47.42,9.88
"931","ATEGL",47.33,13.33
"932","ATEGT",48.12,14.13
"933","ATEH7",47.4,10.92
"934","ATEHN",48.13,14.48
"935","ATEHR",46.72,15.57
"936","ATEIN",48.07,16.78
"937","ATEIT",47.83,16.53
"938","ATEKV",46.48,14.58
"939","ATELI",47.87,13.07
"940","ATELL",48.1,16.98
"941","ATEMM",48.23,15.33
"942","ATENO",48.2,14.47
"943","ATENZ",48.08,16.6
"944","ATEPD",48.33,15.9
"945","ATERF",46.58,14.63
"946","ATERG",47.5,12.03
"947","ATERL",47.67,12.17
"948","ATERM",47.47,15
"949","ATERO",48.45,15.88
"950","ATERP",47.57,12.47
"951","ATERR",48.6,16.82
"952","ATESB",48.55,13.57
"953","ATESG",47.8,13.18
"954","ATESN",47.13,14.73
"955","ATESW",48.15,13.57
"956","ATETE",48.37,16.38
"957","ATETH",48.58,16.23
"958","ATETL",48.43,16.78
"959","ATETN",46.8,14.55
"960","ATETZ",47.28,11.05
"961","ATEUG",47.87,13.12
"962","ATEWD",46.68,15.83
"963","ATEZF",47.92,16.18
"964","ATFAA",48.38,15.92
"965","ATFAS",47.8,13.3
"966","ATFAU",47.37,13.53
"967","ATFBB",47.48,12.55
"968","ATFBG",48.07,13.48
"969","ATFBN",48.43,15.78
"970","ATFBZ",46.92,15.25
"971","ATFDG",48.02,13.23
"972","ATFDU",46.7,13.67
"973","ATFED",46.95,15.88
"974","ATFEK",48.35,14.05
"975","ATFEO",46.73,13.62
"976","ATFG7",48.67,-162.5
"977","ATFGN",47.35,11.85
"978","ATFHK",47.12,14.47
"979","ATFHR",46.93,16
"980","ATFIS",48.12,16.6
"981","ATFIT",46.52,14.17
"982","ATFKC",47.02,15.45
"983","ATFKI",46.72,14.08
"984","ATFKN",47.83,16.93
"985","ATFKT",47.23,9.6
"986","ATFLA",47.33,13.4
"987","ATFLO",48.25,16.4
"988","ATFNA",48.18,16.43
"989","ATFNZ",48.55,15.68
"990","ATFOH",47.2,14.68
"991","ATFOR",48.03,13.43
"992","ATFPS",47.15,11.35
"993","ATFRA",48.55,14.97
"994","ATFRB",48.57,13.52
"995","ATFRE",46.75,15.43
"996","ATFRH",46.95,14.42
"997","ATFRI",47.3,11.58
"998","ATFSA",47.48,9.65
"999","ATFSB",47.43,15.65
"1000","ATFSC",47.17,14.73
"1001","ATFSD",48.5,14.5
"1002","ATFSU",47.77,13.22
"1003","ATFTL",46.83,15.27
"1004","ATFUF",47.05,16.08
"1005","ATFUR",46.55,13.82
"1006","ATFWG",48.45,15.82
"1007","ATFXO",47.88,16.25
"1008","ATGA6",46.72,15.55
"1009","ATGAA",48.05,16.18
"1010","ATGAB",48.22,16.15
"1011","ATGAE",48.2,15.18
"1012","ATGAK",48.58,15.65
"1013","ATGAL",46.97,10.18
"1014","ATGAS",48.88,15.22
"1015","ATGBD",46.77,15.58
"1016","ATGBF",48.37,16.47
"1017","ATGBG",47.43,13.9
"1018","ATGC5",46.75,14.65
"1019","ATGDF",48.28,16.45
"1020","ATGDN",47.92,13.8
"1021","ATGEI",48.13,13.73
"1022","ATGER",47.07,16.25
"1023","ATGET",48.33,15.68
"1024","ATGF2",47.22,9.72
"1025","ATGFS",48.33,16.23
"1026","ATGFT",48.12,14.85
"1027","ATGFW",48.4,15.78
"1028","ATGFZ",47.88,14.72
"1029","ATGGM",48.27,16.9
"1030","ATGGS",47.6,13.17
"1031","ATGGU",47.83,16.67
"1032","ATGGZ",47.67,15.93
"1033","ATGHF",47.83,16.48
"1034","ATGHH",48.7,16.07
"1035","ATGHJ",48.37,-154
"1036","ATGHR",47.48,14.55
"1037","ATGIE",48.23,13.82
"1038","ATGKN",47.13,15.33
"1039","ATGLA",46.72,14.18
"1040","ATGLD",48.25,16.63
"1041","ATGLG",47.18,14.8
"1042","ATGLI",48.07,14.53
"1043","ATGLO",47.95,16.25
"1044","ATGLZ",46.77,13.65
"1045","ATGMA",48.03,16.72
"1046","ATGMB",47.03,11.47
"1047","ATGMI",47.93,15.1
"1048","ATGMK",46.9,13.53
"1049","ATGMM",46.65,13.78
"1050","ATGMU",48.77,14.98
"1051","ATGNA",46.87,15.82
"1052","ATGND",48.42,15.75
"1053","ATGNF",48.35,16.73
"1054","ATGNR",48.27,13.25
"1055","ATGNS",46.77,13.97
"1056","ATGNZ",48.22,15.15
"1057","ATGOE",47.32,9.62
"1058","ATGOF",46.98,15.48
"1059","ATGOL",47.9,16.9
"1060","ATGOT",47.43,16.15
"1061","ATGOW",48.33,14.1
"1062","ATGPF",47.23,16.32
"1063","ATGPK",48.03,16.27
"1064","ATGPN",47.98,13.55
"1065","ATGRA",46.6,14.45
"1066","ATGRF",46.73,15.78
"1067","ATGRG",47.73,13.03
"1068","ATGRI",46.7,14.73
"1069","ATGRL",48.02,16.48
"1070","ATGRM",47.88,14.55
"1071","ATGRN",48.22,14.83
"1072","ATGRO",48.2,16.53
"1073","ATGRR",46.73,15.43
"1074","ATGRS",48.78,15.67
"1075","ATGRT",48.38,14.22
"1076","ATGRU",46.82,15.32
"1077","ATGRZ",47.07,15.45
"1078","ATGS2",47.22,9.62
"1079","ATGSB",48.05,16.73
"1080","ATGSF",48.13,13.73
"1081","ATGSG",48.47,15.82
"1082","ATGSH",48.78,15.4
"1083","ATGSN",47.87,15.88
"1084","ATGSS",47.07,16.33
"1085","ATGST",46.75,15.37
"1086","ATGSU",48.65,14.93
"1087","ATGTD",48.02,16.98
"1088","ATGTL",48.48,155.33
"1089","ATGTN",47.98,15.02
"1090","ATGTR",48.08,12.93
"1091","ATGTW",47.12,15.32
"1092","ATGUK",48.13,13.93
"1093","ATGUN",48.03,16.3
"1094","ATGUT",48.25,13.33
"1095","ATGWD",48.45,15.98
"1096","ATGWF",48.47,15.98
"1097","ATGZR",48.58,14.95
"1098","ATGZS",47.22,11.25
"1099","ATH3H",47.93,15.98
"1100","ATHAB",48.4,13.92
"1101","ATHAC",48.98,15.05
"1102","ATHAE",48.18,16.78
"1103","ATHAG",48.12,14.57
"1104","ATHAH",48.18,13.63
"1105","ATHAL",47.6,14.45
"1106","ATHAR",48.4,16.3
"1107","ATHBG",48.13,13.02
"1108","ATHBH",48.35,15.65
"1109","ATHBL",48.08,16.23
"1110","ATHBR",47.9,15.62
"1111","ATHBZ",47.55,9.75
"1112","ATHCH",48.42,14.67
"1113","ATHDR",47.07,15.73
"1114","ATHDT",48.22,13.73
"1115","ATHEC",48.85,15.1
"1116","ATHED",48.43,14.12
"1117","ATHEI",48.3,15.78
"1118","ATHEL",48.53,14.13
"1119","ATHEO",47.9,13.18
"1120","ATHER",48.27,15.68
"1121","ATHFL",47.6,14.73
"1122","ATHFN",47.57,10.45
"1123","ATHFS",46.75,12.45
"1124","ATHGB",48.33,16.4
"1125","ATHHG",47.33,10.17
"1126","ATHHN",48.07,14.45
"1127","ATHIA",48.13,16.93
"1128","ATHIG",47.7,15.82
"1129","ATHIH",48.77,15.02
"1130","ATHIM",48.02,14.75
"1131","ATHIR",47.02,14.92
"1132","ATHIT",47.28,11.52
"1133","ATHKM",48.45,15.72
"1134","ATHKN",48.35,14
"1135","ATHKR",48.05,16.13
"1136","ATHKZ",47.87,14.12
"1137","ATHLB",47.47,15.48
"1138","ATHLD",48.37,15.35
"1139","ATHLG",47.85,13.08
"1140","ATHLM",48.58,14.03
"1141","ATHLT",47.55,13.65
"1142","ATHLZ",47.03,15.32
"1143","ATHMD",48.43,16.4
"1144","ATHME",48.07,14.8
"1145","ATHMN",46.98,15.52
"1146","ATHNN",48.1,16.37
"1147","ATHNT",48.13,14.37
"1148","ATHOC",47.47,12.62
"1149","ATHOF",47.63,13.85
"1150","ATHOG",47.6,15.63
"1151","ATHOH",47.37,9.68
"1152","ATHOM",48.48,13.8
"1153","ATHON",48.47,16.65
"1154","ATHOP",47.45,12.17
"1155","ATHOR",48.65,15.65
"1156","ATHOT",47.58,16.55
"1157","ATHRH",48.23,14.18
"1158","ATHRM",47.78,16.47
"1159","ATHRS",48.7,16.12
"1160","ATHRT",47.18,15.92
"1161","ATHSE",47.87,16.43
"1162","ATHST",47.45,9.62
"1163","ATHTA",47.27,15.97
"1164","ATHTE",47.92,16.17
"1165","ATHTZ",47.03,15.25
"1166","ATHUT",47.42,13.3
"1167","ATHZD",48.43,15.73
"1168","ATHZF",48.77,15.65
"1169","ATHZL",46.98,16.25
"1170","ATICH",47.7,13.6
"1171","ATIEG",48.58,15.87
"1172","ATIIK",47.92,14.07
"1173","ATILL",47.77,16.8
"1174","ATILZ",47.08,15.92
"1175","ATIMS",47.23,10.73
"1176","ATINN",47.27,11.4
"1177","ATINZ",47.27,11.2
"1178","ATIST",47.22,9.67
"1179","ATITN",48.38,16.1
"1180","ATITR",47.47,12.05
"1181","ATITT",47.45,12.13
"1182","ATIZG",48.13,15.9
"1183","ATJDB",47.15,14.67
"1184","ATJDD",47.12,15.35
"1185","ATJDF",46.93,16
"1186","ATJEG",48.05,13.13
"1187","ATJEN",47.38,11.77
"1188","ATJGE",46.85,15.73
"1189","ATJOA",47.35,13.2
"1190","ATJOC",48.38,15.45
"1191","ATJOH",47.52,12.42
"1192","ATJOS",47.97,16.8
"1193","ATJPS",48.78,15.57
"1194","ATJSS",46.83,15.5
"1195","ATJZS",47.15,10.73
"1196","ATK2R",48.25,15.57
"1197","ATK8B",47.83,16.5
"1198","ATKAB",47.28,11.87
"1199","ATKAD",46.98,15.77
"1200","ATKAF",46.92,15.83
"1201","ATKAL",48.28,13.72
"1202","ATKAM",47.4,14.9
"1203","ATKAN",48.42,15.62
"1204","ATKAP",47.27,12.77
"1205","ATKAR",46.83,13.47
"1206","ATKAT",46.9,138.4
"1207","ATKAW",48.42,15.93
"1208","ATKBA",47.95,157.53
"1209","ATKBF",47.6,16.4
"1210","ATKBW",48.43,15.9
"1211","ATKBZ",46.88,13.3
"1212","ATKCH",46.77,15.97
"1213","ATKDO",48.62,16.23
"1214","ATKDT",48.75,16.02
"1215","ATKEU",46.67,13
"1216","ATKFD",47.2,14.82
"1217","ATKFH",47.05,15.07
"1218","ATKFM",48.43,14.53
"1219","ATKFT",47.57,12.45
"1220","ATKGA",48.2,13.95
"1221","ATKGI",48.43,13.65
"1222","ATKHH",47.97,13.9
"1223","ATKHO",48.7,13.88
"1224","ATKHS",48.45,16.62
"1225","ATKIF",48.45,15.98
"1226","ATKII",48.2,13.38
"1227","ATKIN",47.5,15.45
"1228","ATKIR",48.72,15.08
"1229","ATKIT",47.45,12.38
"1230","ATKKM",47.9,14.12
"1231","ATKL4",48.6,13.83
"1232","ATKLA",47.32,9.65
"1233","ATKLG",47.47,15.13
"1234","ATKLH",48.77,15.25
"1235","ATKLU",46.62,14.3
"1236","ATKLZ",48.4,14.27
"1237","ATKMB",48.22,15.17
"1238","ATKME",47.23,16.15
"1239","ATKMK",48.1,14.18
"1240","ATKMN",46.92,13.57
"1241","ATKMR",47.17,15.53
"1242","ATKN8",47.25,14.88
"1243","ATKNR",47.93,16.22
"1244","ATKNS",48.08,16.6
"1245","ATKOB",47.32,9.6
"1246","ATKOE",47.95,13.18
"1247","ATKOG",47.32,15.68
"1248","ATKOH",47.17,16.35
"1249","ATKOL",47.28,11.63
"1250","ATKOP",47.8,13.17
"1251","ATKOS",47.67,12.4
"1252","ATKOT",48.42,15.3
"1253","ATKPL",47.05,10.37
"1254","ATKPO",48.22,15.22
"1255","ATKRE",47.03,15.18
"1256","ATKRI",47.53,15.55
"1257","ATKRL",47.52,12.08
"1258","ATKRM",48.02,14.5
"1259","ATKRO",46.97,16.18
"1260","ATKRS",47.45,11.87
"1261","ATKRZ",48.33,16.3
"1262","ATKSE",48.08,17.07
"1263","ATKSP",46.83,14.53
"1264","ATKSS",46.77,15.43
"1265","ATKST",48.13,14.45
"1266","ATKTE",48.18,15.82
"1267","ATKTF",47.45,15.33
"1268","ATKTN",48.3,16.13
"1269","ATKTP",46.55,14.03
"1270","ATKTT",47.25,11.27
"1271","ATKTU",48.3,16.32
"1272","ATKUB",47.52,16.18
"1273","ATKUC",47.62,13.13
"1274","ATKUD",46.62,14.63
"1275","ATKUN",47.47,11.98
"1276","ATKZL",47.98,15.75
"1277","ATLAA",48.72,16.38
"1278","ATLAB",48.32,13.52
"1279","ATLAG",48.47,15.67
"1280","ATLAM",46.98,16.05
"1281","ATLAN",47.13,10.55
"1282","ATLAS",47.73,14.88
"1283","ATLAU",47.27,144.9
"1284","ATLBD",47.92,16.22
"1285","ATLBE",48.23,15.27
"1286","ATLBU",47.9,16.17
"1287","ATLCH",48.02,13.18
"1288","ATLCK",47.58,16.47
"1289","ATLDG",48.27,14.23
"1290","ATLDO",48.53,16.48
"1291","ATLDS",48.48,16.75
"1292","ATLEB",46.85,15.53
"1293","ATLEI",46.78,15.53
"1294","ATLEN",47.28,13.03
"1295","ATLEO",48.37,16.3
"1296","ATLFT",48.13,15.28
"1297","ATLGE",48.33,16.12
"1298","ATLGN",48.47,15.6
"1299","ATLGR",48.3,16
"1300","ATLGU",48,13.22
"1301","ATLGW",47.57,15.62
"1302","ATLIB",46.97,15.33
"1303","ATLIW",48.5,15.38
"1304","ATLKI",47.97,13.82
"1305","ATLKN",48.72,13.58
"1306","ATLL6",47.22,15.37
"1307","ATLLF",48.02,15.63
"1308","ATLLG",48.37,15.68
"1309","ATLMU",47.48,15.37
"1310","ATLNH",46.93,15.33
"1311","ATLNT",46.78,12.83
"1312","ATLNZ",48.3,14.3
"1313","ATLOB",48.13,13.4
"1314","ATLOE",48.43,15.42
"1315","ATLOF",47.58,12.68
"1316","ATLOI",48.17,16.83
"1317","ATLOS",47.92,14.43
"1318","ATLP4",47.93,16.48
"1319","ATLPB",47.72,19.12
"1320","ATLPD",48.13,15.35
"1321","ATLPO",48.12,16.4
"1322","ATLPS",47.98,12.95
"1323","ATLRR",46.83,13.48
"1324","ATLSD",48.2,15.4
"1325","ATLSH",48.93,15.05
"1326","ATLSN",48.25,14.47
"1327","ATLTD",48.12,14.95
"1328","ATLTF",47.55,12.1
"1329","ATLTG",48.78,15.32
"1330","ATLTH",47.37,11.15
"1331","ATLTS",46.67,15.47
"1332","ATLTX",48.03,15.77
"1333","ATLTZ",47.47,16.63
"1334","ATLUA",48.48,13.88
"1335","ATLUW",47.1,15.67
"1336","ATLWN",46.9,14.28
"1337","ATLXE",48.07,16.35
"1338","ATLZD",48.3,16.35
"1339","ATLZF",48.1,16.43
"1340","ATMA5",47.4,12.9
"1341","ATMAB",48.22,15.15
"1342","ATMAI",48.28,13.22
"1343","ATMAK",47.85,14.13
"1344","ATMAL",47.97,16.6
"1345","ATMAM",48.03,16.6
"1346","ATMAN",48.08,13.67
"1347","ATMAR",48.02,15.58
"1348","ATMAS",46.67,14.33
"1349","ATMAT",47.73,16.38
"1350","ATMAU",48.23,14.52
"1351","ATMBG",47.28,14.48
"1352","ATMBH",48.25,16.17
"1353","ATMBK",46.83,13.37
"1354","ATMBR",47.13,11.45
"1355","ATMBS",47.75,16.67
"1356","ATMCD",47.87,14.13
"1357","ATMCF",46.62,13.4
"1358","ATMDF",48.37,16
"1359","ATMDG",48.07,13.18
"1360","ATMDO",47.37,16.22
"1361","ATMDR",47.35,9.62
"1362","ATMDS",47.37,15
"1363","ATMEE",48.22,13.43
"1364","ATMEI",46.83,14.4
"1365","ATMEM",47.3,10.98
"1366","ATMEN",48.1,16.28
"1367","ATMER",48.18,14.1
"1368","ATMGL",48.27,16.63
"1369","ATMGN",48.18,13.8
"1370","ATMHE",48.27,15.13
"1371","ATMHF",47.88,16.95
"1372","ATMIC",48.08,15.75
"1373","ATMIL",47.28,11.52
"1374","ATMIS",48.23,14.07
"1375","ATMIX",47.32,15.35
"1376","ATMKA",47.23,16.08
"1377","ATMKC",48.18,14.7
"1378","ATMLA",47.35,9.87
"1379","ATMLB",48.67,16.18
"1380","ATMLD",48.02,16.3
"1381","ATMLH",48.83,15.8
"1382","ATMLJ",48.3,15.33
"1383","ATMLL",48.52,15.68
"1384","ATMLN",48.28,15.93
"1385","ATMLS",47.27,12.47
"1386","ATMML",47.53,15.52
"1387","ATMMZ",47.47,15.37
"1388","ATMNG",47.4,13.57
"1389","ATMNN",48.38,16.83
"1390","ATMNO",47.85,16.47
"1391","ATMOE",48.07,16.28
"1392","ATMOF",47.48,15.38
"1393","ATMON",47.85,13.35
"1394","ATMOO",48.17,16.45
"1395","ATMPI",47.87,16.13
"1396","ATMR2",46.55,14.28
"1397","ATMRC",48.18,14.12
"1398","ATMRH",47.17,11.87
"1399","ATMRZ",47.72,16.42
"1400","ATMSB",46.8,15.7
"1401","ATMSD",47.03,15.48
"1402","ATMSF",48.47,16.63
"1403","ATMSN",47.37,12.8
"1404","ATMSS",48.68,15.8
"1405","ATMST",46.8,13.57
"1406","ATMTB",47.4,13.22
"1407","ATMTF",47.13,13.67
"1408","ATMTI",48.28,13.43
"1409","ATMTK",47.4,14.83
"1410","ATMTN",48.38,15.58
"1411","ATMTS",47.97,13.1
"1412","ATMTZ",48.4,16.7
"1413","ATMUC",46.7,15.77
"1414","ATMUD",48.38,15.57
"1415","ATMUE",48.02,16.37
"1416","ATMUQ",48.23,15.82
"1417","ATMUR",47.1,14.17
"1418","ATMW3",48.15,16.52
"1419","ATMZH",48.27,14.7
"1420","ATMZL",47.77,15.32
"1421","ATMZZ",47.6,15.67
"1422","ATN9F",48.57,16.85
"1423","ATNAA",48.22,14.6
"1424","ATNAD",48.05,14.85
"1425","ATNAH",47.97,13.02
"1426","ATNAL",48.02,14.78
"1427","ATNAS",47.93,16.83
"1428","ATNAT",48.35,15.7
"1429","ATNAZ",48.63,16.8
"1430","ATNBA",47.97,14.17
"1431","ATNBI",47.08,15.95
"1432","ATND2",47.93,17.07
"1433","ATNDF",48.17,15.18
"1434","ATNDL",47.37,16.03
"1435","ATNDS",46.88,10.52
"1436","ATNE2",48.73,15.88
"1437","ATNEB",48.52,15.87
"1438","ATNEC",47.6,16.55
"1439","ATNEH",48.17,15.97
"1440","ATNEI",48.23,15.55
"1441","ATNEK",48.13,14.22
"1442","ATNEL",47.78,16.3
"1443","ATNEM",48.53,13.75
"1444","ATNET",48.17,14.25
"1445","ATNEU",48.5,16.52
"1446","ATNEZ",47.17,9.68
"1447","ATNFN",48.48,13.98
"1448","ATNGG",48.48,15.88
"1449","ATNGZ",47.05,15.62
"1450","ATNHN",48.43,16.3
"1451","ATNHR",48.27,13.7
"1452","ATNID",48.55,16.4
"1453","ATNIE",48.1,13.67
"1454","ATNII",48.18,13.47
"1455","ATNIK",48.47,13.88
"1456","ATNIS",48.65,16.28
"1457","ATNIW",47.15,14.37
"1458","ATNKB",46.87,16.03
"1459","ATNKD",47.38,15.15
"1460","ATNKN",47.72,16.08
"1461","ATNLA",47.73,16.23
"1462","ATNMK",48.42,14.48
"1463","ATNMN",48.47,13.8
"1464","ATNNE",48.47,13.45
"1465","ATNNN",47.9,16.63
"1466","ATNPK",47,15.42
"1467","ATNRF",48.67,16.47
"1468","ATNRR",48.45,16.03
"1469","ATNSD",47.22,14.47
"1470","ATNSM",48.18,14.92
"1471","ATNT3",48.33,16.48
"1472","ATNT9",47.83,16.1
"1473","ATNTA",47.53,16.43
"1474","ATNUF",47.87,16.37
"1475","ATNUZ",47.18,9.8
"1476","ATNVC",48.03,13.53
"1477","ATNWK",48.45,14.07
"1478","ATNWR",47.83,16.28
"1479","ATNWS",47.95,13.23
"1480","ATNYB",48.13,15.05
"1481","ATNZG",48.05,14.33
"1482","ATOAD",48.13,16.7
"1483","ATOAH",48.08,13.65
"1484","ATOAM",48.05,15.22
"1485","ATOBE",47.48,16.5
"1486","ATOBG",48.13,15.53
"1487","ATOBH",48.62,15.1
"1488","ATOBM",48.05,12.98
"1489","ATOBR",47.93,12.93
"1490","ATOBW",47.95,13.82
"1491","ATOCH",48.22,14.08
"1492","ATOCW",48.17,15.47
"1493","ATODT",47.5,12.38
"1494","ATOED",48.38,15.13
"1495","ATOFC",46.63,13.82
"1496","ATOHI",47.95,13.3
"1497","ATOHO",48.18,13.53
"1498","ATOIN",48.3,13.43
"1499","ATOLL",47.87,14.27
"1500","ATOLS",47.95,13.78
"1501","ATOMB",47.7,13.1
"1502","ATOOT",48.6,13.93
"1503","ATORB",48.4,16.3
"1504","ATORF",46.57,13.85
"1505","ATORH",47.4,15.22
"1506","ATORI",48.23,14.13
"1507","ATORT",47.9,15.97
"1508","ATOSF",48.4,16.8
"1509","ATOSH",48.33,14.18
"1510","ATOSK",48.62,16.15
"1511","ATOSZ",47.35,16.2
"1512","ATOTN",47.55,13.68
"1513","ATOTT",47.8,16.38
"1514","ATOWD",47.98,16.32
"1515","ATOWG",48.2,15.68
"1516","ATOWN",47.87,13.43
"1517","ATOYH",47.98,16.28
"1518","ATOZB",47.23,10.85
"1519","ATPAL",46.93,15.78
"1520","ATPAM",47.7,16.92
"1521","ATPAS",47.85,16.83
"1522","ATPAT",48.62,15.55
"1523","ATPBK",48.32,13.92
"1524","ATPBM",48.18,16.08
"1525","ATPBN",47.9,16.68
"1526","ATPBU",48.18,15.07
"1527","ATPDG",47.18,15.65
"1528","ATPDO",47.75,16.43
"1529","ATPEB",47.95,14.02
"1530","ATPEC",48.12,16.85
"1531","ATPEG",47.2,15.35
"1532","ATPET",48.13,15.15
"1533","ATPFA",48.02,16.27
"1534","ATPFD",47.37,16.12
"1535","ATPFF",47.3,11.08
"1536","ATPFZ",48.6,16.72
"1537","ATPGG",47.43,16.05
"1538","ATPGM",47.35,15.35
"1539","ATPGN",48.35,14.52
"1540","ATPGO",46.65,14.45
"1541","ATPID",47.83,13.18
"1542","ATPIS",46.68,14.45
"1543","ATPIT",47.72,16.18
"1544","ATPK6",47.17,15.8
"1545","ATPKG",48.18,14.18
"1546","ATPKU",48.7,15.85
"1547","ATPLA",48.67,15.95
"1548","ATPLE",48.05,15.13
"1549","ATPLH",48.35,16.53
"1550","ATPLL",47.32,11.67
"1551","ATPLS",47.22,14.57
"1552","ATPND",47.28,12.72
"1553","ATPNF",48,13.38
"1554","ATPNT",47.88,15.95
"1555","ATPO2",47.32,15.85
"1556","ATPO4",48.13,13.85
"1557","ATPOB",48.72,16.62
"1558","ATPOE",48.2,15.22
"1559","ATPOF",47.92,13.77
"1560","ATPOG",48.32,15.18
"1561","ATPOL",46.73,15.97
"1562","ATPOT",48.38,16.73
"1563","ATPOY",48.67,16.63
"1564","ATPP3",48.37,15.63
"1565","ATPRA",48.13,13.48
"1566","ATPRB",48.33,13.77
"1567","ATPRD",48.7,16.02
"1568","ATPRF",48.33,15.93
"1569","ATPRL",47.4,15.13
"1570","ATPRM",48.23,13.62
"1571","ATPRT",46.93,14.92
"1572","ATPSB",46.82,15.67
"1573","ATPSM",47.17,15.8
"1574","ATPSS",47.28,15.52
"1575","ATPST",46.77,15.37
"1576","ATPTF",48.12,16.27
"1577","ATPTG",48.02,13.13
"1578","ATPTH",48.02,14.98
"1579","ATPTT",47.9,16.38
"1580","ATPTZ",47.12,16.33
"1581","ATPUC",46.93,15.77
"1582","ATPUH",48.75,15.08
"1583","ATPUP",48.33,14
"1584","ATPUU",48.32,14.23
"1585","ATPWE",48.18,13.9
"1586","ATPWG",48,13.08
"1587","ATPZF",48.63,16.27
"1588","ATQWE",48.1,16.47
"1589","ATQXZ",47.48,12.07
"1590","ATR8N",48.05,15.75
"1591","ATRAA",48.23,16.55
"1592","ATRAD",47.38,13.45
"1593","ATRAH",47.05,15.1
"1594","ATRAM",47.07,13.83
"1595","ATRAN",48.12,16.47
"1596","ATRAS",48.57,15.33
"1597","ATRAU",47.22,13
"1598","ATRBA",47.02,15.48
"1599","ATRBG",47,15.93
"1600","ATRBM",47.72,16.42
"1601","ATRCA",47.7,15.83
"1602","ATRCH",48.25,13.52
"1603","ATRDF",48.42,15.65
"1604","ATRDN",46.8,13.7
"1605","ATRDW",46.68,15.57
"1606","ATRED",48.02,13.73
"1607","ATREE",47.37,9.88
"1608","ATREG",48.08,14.13
"1609","ATREI",48.33,13.37
"1610","ATREU",47.5,9.72
"1611","ATRFD",47.45,11.92
"1612","ATRGF",48.4,16.65
"1613","ATRHN",48.23,13
"1614","ATRHR",48.07,16.85
"1615","ATRIK",48.2,13.47
"1616","ATRIM",48.55,14.47
"1617","ATRIT",48.02,14.08
"1618","ATRIZ",47.28,11.05
"1619","ATRLD",47.35,16.13
"1620","ATRMU",48,15.8
"1621","ATRN3",48,16.52
"1622","ATRNA",46.68,14.18
"1623","ATRNZ",47.3,16.45
"1624","ATROA",48.38,15.5
"1625","ATROH",48.07,14.57
"1626","ATROI",48.02,13.82
"1627","ATROS",46.53,14.03
"1628","ATRRA",47.15,15.65
"1629","ATRRF",48.4,15.5
"1630","ATRRM",47.88,14.45
"1631","ATRSB",47.98,15.07
"1632","ATRSD",48.33,15.7
"1633","ATRSL",47.68,14.28
"1634","ATRST",48.67,15.88
"1635","ATRSU",48.63,15.63
"1636","ATRTB",47.43,11.9
"1637","ATRTE",47.47,10.7
"1638","ATRTH",47.28,9.65
"1639","ATRTL",48.55,14.38
"1640","ATRTM",47.25,16.23
"1641","ATRTZ",48.75,15.95
"1642","ATRUD",47.05,16.12
"1643","ATRUG",48.63,15.58
"1644","ATRUM",47.28,11.45
"1645","ATRUN",46.65,14.77
"1646","ATRUP",48.13,15.27
"1647","ATRUS",47.8,16.65
"1648","ATRUZ",47.2,11.88
"1649","ATRXF",48.33,15.27
"1650","ATRZM",47.97,13.7
"1651","ATS6P",47.38,15.02
"1652","ATS7B",47.8,16.6
"1653","ATS7N",48.73,15.25
"1654","ATSA7",48.4,15.83
"1655","ATSAA",47.78,16.93
"1656","ATSAC",46.82,132.18
"1657","ATSAD",47.68,13.13
"1658","ATSAG",47.85,16.62
"1659","ATSAK",48.48,13.75
"1660","ATSAM",48.22,14.97
"1661","ATSAN",46.63,13.88
"1662","ATSAO",46.78,15.75
"1663","ATSAP",47.53,12.57
"1664","ATSAS",47.37,11.72
"1665","ATSAT",47.92,16.23
"1666","ATSAW",48.33,16.22
"1667","ATSBA",47.07,15.25
"1668","ATSBB",48,15.17
"1669","ATSBC",47.87,16.2
"1670","ATSBG",48.13,14.63
"1671","ATSBH",48.45,15.05
"1672","ATSBK",47.22,14.78
"1673","ATSBL",47.07,14.3
"1674","ATSCC",48.2,13.22
"1675","ATSCG",48.72,16.72
"1676","ATSCS",47.2,9.7
"1677","ATSCZ",47.35,11.72
"1678","ATSDB",48.1,14.27
"1679","ATSDD",48.4,15.58
"1680","ATSDG",48.45,13.43
"1681","ATSDN",46.97,11
"1682","ATSDO",48.58,16.63
"1683","ATSEB",46.82,13.48
"1684","ATSEE",47.32,11.17
"1685","ATSEF",48.72,16.17
"1686","ATSEH",47.97,13.08
"1687","ATSEI",47.95,16.52
"1688","ATSEL",47.08,13.63
"1689","ATSET",48.03,14.63
"1690","ATSFA",47.93,13.6
"1691","ATSFD",46.7,15.63
"1692","ATSFI",48.43,13.6
"1693","ATSFL",48.17,13.13
"1694","ATSFS",46.8,14.85
"1695","ATSFT",48.43,15.55
"1696","ATSG4",48.27,14.45
"1697","ATSGA",47.93,13.48
"1698","ATSGF",48.12,15.58
"1699","ATSGG",47.53,14.37
"1700","ATSGL",48.63,13.97
"1701","ATSGN",48.03,13.32
"1702","ATSGR",47.65,16.37
"1703","ATSGS",47.98,12.88
"1704","ATSGT",46.87,15.57
"1705","ATSGY",48.13,14.95
"1706","ATSGZ",48.55,15.23
"1707","ATSH5",47.18,15.82
"1708","ATSHA",47.75,13.95
"1709","ATSHB",48.52,15.7
"1710","ATSHE",48.67,15.07
"1711","ATSHF",48.32,16.67
"1712","ATSHG",48.58,14.2
"1713","ATSHS",47.08,9.92
"1714","ATSHT",48.13,16.47
"1715","ATSIF",47.78,16.53
"1716","ATSIG",47.82,15.7
"1717","ATSII",48.05,14.33
"1718","ATSIP",47.32,13.15
"1719","ATSIR",47.9,13.13
"1720","ATSIS",47.78,16.38
"1721","ATSIT",46.53,14.6
"1722","ATSJD",46.92,12.32
"1723","ATSJK",46.55,14.05
"1724","ATSK3",46.63,14.38
"1725","ATSKB",46.72,13.52
"1726","ATSKG",47.68,14.6
"1727","ATSKH",48.17,13.57
"1728","ATSKK",46.62,14.58
"1729","ATSKM",47.33,15
"1730","ATSKN",47.1,15.82
"1731","ATSKS",46.88,15.97
"1732","ATSLB",47.38,12.63
"1733","ATSLD",47.38,13.68
"1734","ATSLV",46.7,14.85
"1735","ATSLZ",47.27,10.93
"1736","ATSM4",47.1,14.97
"1737","ATSMA",48.13,14.27
"1738","ATSMI",47.33,15
"1739","ATSMK",48.38,14.73
"1740","ATSMM",48.42,14.03
"1741","ATSMN",48.22,14.27
"1742","ATSMR",47.05,15.75
"1743","ATSMU",47.15,14.4
"1744","ATSND",48.03,16.67
"1745","ATSNG",46.98,15.28
"1746","ATSNI",48.23,14.9
"1747","ATSNP",48.25,13.92
"1748","ATSNT",47.23,9.9
"1749","ATSOG",47.97,14.75
"1750","ATSOL",47.5,12.18
"1751","ATSOP",47.08,15.27
"1752","ATSOS",47.98,16.2
"1753","ATSPA",48.2,14.57
"1754","ATSPD",48.05,14.62
"1755","ATSPG",48.45,16.73
"1756","ATSPI",46.8,13.5
"1757","ATSPN",48.38,16.25
"1758","ATSPR",46.75,15.25
"1759","ATSPS",47.6,15.75
"1760","ATSPU",48.08,13.87
"1761","ATSPY",47.65,14.33
"1762","ATSPZ",48.37,15.42
"1763","ATSRB",48.47,15.73
"1764","ATSRD",48.35,16.7
"1765","ATSRM",48.78,15.05
"1766","ATSSB",47,15.4
"1767","ATSSI",47.9,13.97
"1768","ATSSM",47.42,12.83
"1769","ATSSO",47.3,14.98
"1770","ATSSP",47.45,13.2
"1771","ATSSR",46.9,15.73
"1772","ATSSS",47.48,16.48
"1773","ATST2",47.23,11.45
"1774","ATST6",46.8,15.87
"1775","ATST8",47.52,9.87
"1776","ATSTB",47.17,16.17
"1777","ATSTC",48.38,16.22
"1778","ATSTD",47.6,13.63
"1779","ATSTE",46.75,13.23
"1780","ATSTF",47.95,13.23
"1781","ATSTG",46.87,14.87
"1782","ATSTH",47.63,13.6
"1783","ATSTK",46.9,15.33
"1784","ATSTL",47.72,13.48
"1785","ATSTM",47.27,10.97
"1786","ATSTN",48.02,14.65
"1787","ATSTO",47.52,16.47
"1788","ATSTP",48.2,15.63
"1789","ATSTR",47.77,16.47
"1790","ATSUB",48.4,13.42
"1791","ATSUH",48.6,16.77
"1792","ATSUL",47.28,9.65
"1793","ATSUN",48.07,14.07
"1794","ATSUP",47.82,16.4
"1795","ATSUS",48.12,14.02
"1796","ATSVG",46.77,14.35
"1797","ATSVM",48.47,14.15
"1798","ATSVO",48.03,15.67
"1799","ATSVV",46.73,15.62
"1800","ATSWA",47.95,13.58
"1801","ATSWB",46.75,15.2
"1802","ATSWG",48.02,12.95
"1803","ATSWH",48.4,16.62
"1804","ATSWN",47.98,13.25
"1805","ATSWO",47.55,12.13
"1806","ATSWT",47.52,12.32
"1807","ATSXA",48.68,16.87
"1808","ATSYG",48.28,14.37
"1809","ATSYM",47.98,13.8
"1810","ATSZ5",47.28,12.52
"1811","ATSZA",47.55,14.32
"1812","ATSZG",47.8,13.03
"1813","ATSZI",48.45,15.6
"1814","ATTAM",47.13,13.8
"1815","ATTAT",47.95,16.3
"1816","ATTBE",47.48,14.47
"1817","ATTBG",48.5,14.2
"1818","ATTBL",48.3,14.75
"1819","ATTBW",48.15,14.03
"1820","ATTDF",48.38,16.35
"1821","ATTDW",47.82,16.57
"1822","ATTEF",47.95,16.28
"1823","ATTEN",46.98,15.5
"1824","ATTEU",46.9,15.22
"1825","ATTEX",48.03,15.32
"1826","ATTFS",47.32,11.65
"1827","ATTGU",47.83,13.25
"1828","ATTHF",47.85,16.23
"1829","ATTHG",48.25,14.17
"1830","ATTHM",47.18,14.58
"1831","ATTHN",47.2,9.77
"1832","ATTHR",47.3,11.47
"1833","ATTHS",48.38,15.68
"1834","ATTHY",48.85,15.28
"1835","ATTIR",47.7,15.55
"1836","ATTIS",48.03,15.6
"1837","ATTK2",46.7,14.4
"1838","ATTKI",48.27,13.57
"1839","ATTKP",48.42,13.53
"1840","ATTLH",48.23,13.5
"1841","ATTLL",46.8,15.47
"1842","ATTLN",48.33,16.05
"1843","ATTMA",48,13.6
"1844","ATTMH",48.05,12.83
"1845","ATTMR",48.33,15.73
"1846","ATTNG",47.93,14.37
"1847","ATTNQ",48.22,14.23
"1848","ATTNU",47.77,16.48
"1849","ATTPV",46.87,14.47
"1850","ATTR7",47.12,11.32
"1851","ATTRA",48.33,14.62
"1852","ATTRH",47.37,14.98
"1853","ATTRU",48,16.33
"1854","ATTSN",47.57,16.13
"1855","ATTTL",48.7,15.9
"1856","ATTUE",47.92,15.48
"1857","ATTUL",48.28,16.12
"1858","ATTWG",46.9,14.83
"1859","ATTWR",47.3,11.63
"1860","ATTYN",48.35,15.67
"1861","ATUBA",47.2,15.22
"1862","ATUBE",46.52,14.28
"1863","ATUBG",47.12,13.73
"1864","ATUBL",48.1,16.23
"1865","ATUDE",47.32,11.87
"1866","ATUER",48.37,16.63
"1867","ATUFN",47.18,15.67
"1868","ATUGN",48.05,13.62
"1869","ATULB",48.38,15.53
"1870","ATUNA",47.8,13.47
"1871","ATUNG",47.08,15.67
"1872","ATUNK",47.65,12.72
"1873","ATUNN",48.25,16.72
"1874","ATUNZ",47.18,14.43
"1875","ATUPS",46.95,15.4
"1876","ATURB",48.25,15.68
"1877","ATURF",48.32,14.27
"1878","ATURS",47.13,9.8
"1879","ATUTB",48.77,16
"1880","ATUTK",48.7,16.1
"1881","ATUTZ",48.28,13.47
"1882","ATUWF",48.37,14.47
"1883","ATVAS",47,15.55
"1884","ATVCO",48,13.92
"1885","ATVDS",48.1,16.32
"1886","ATVEH",48.15,14.88
"1887","ATVEL",46.62,14.05
"1888","ATVIC",48.53,13.67
"1889","ATVIE",48.2,16.37
"1890","ATVLM",48.47,16.77
"1891","ATVMP",47.33,11.67
"1892","ATVNG",47.28,9.57
"1893","ATVOC",48,13.65
"1894","ATVOF",48.12,16.32
"1895","ATVOK",48,13.48
"1896","ATVOR",47.38,9.9
"1897","ATVOT",46.65,14.62
"1898","ATVTD",47.93,13.07
"1899","ATVTH",47.57,15.48
"1900","ATVTS",48.75,15.17
"1901","ATW8B",47.23,16.35
"1902","ATWAF",47.95,14.77
"1903","ATWAI",48.8,15.27
"1904","ATWAK",48.43,13.82
"1905","ATWAL",47.78,12.97
"1906","ATWAN",47.28,15.32
"1907","ATWAS",47.8,16.13
"1908","ATWB2",48.58,14.55
"1909","ATWBA",46.65,13.78
"1910","ATWBF",48.5,14.43
"1911","ATWBH",48.28,13.38
"1912","ATWBU",48.1,15.6
"1913","ATWCH",47.45,15.82
"1914","ATWDB",48.75,16.5
"1915","ATWDF",46.88,15.47
"1916","ATWDG",47.87,16.03
"1917","ATWDO",46.88,15.52
"1918","ATWDR",48.32,15.67
"1919","ATWDU",46.92,15.45
"1920","ATWE3",48.5,15.77
"1921","ATWEA",48.7,14.88
"1922","ATWEB",47.95,13.02
"1923","ATWEE",47.97,16.02
"1924","ATWEG",47.95,16.4
"1925","ATWEI",47.57,14.22
"1926","ATWEN",46.62,13.93
"1927","ATWER",46.92,15.48
"1928","ATWES",48.2,15.02
"1929","ATWET",48.28,15.25
"1930","ATWEU",48.1,15.52
"1931","ATWEZ",47.22,15.6
"1932","ATWFG",48.1,13.67
"1933","ATWFN",47.47,13.18
"1934","ATWFT",47.47,9.75
"1935","ATWGI",48.23,13.18
"1936","ATWGR",47.93,14.12
"1937","ATWHE",48.32,14.2
"1938","ATWID",47.45,12.05
"1939","ATWIE",48.3,15.68
"1940","ATWIF",47.78,16.05
"1941","ATWIH",47.98,12.88
"1942","ATWIL",48.1,16.8
"1943","ATWIN",48.72,15.73
"1944","ATWIS",49.42,156.98
"1945","ATWKD",48.38,15.47
"1946","ATWKH",47.98,14.25
"1947","ATWKI",47.15,14.73
"1948","ATWLG",48.23,13.67
"1949","ATWLL",47.85,16.17
"1950","ATWLN",48.07,14.37
"1951","ATWLP",47.65,14.98
"1952","ATWLR",47.28,9.65
"1953","ATWLS",47.77,12.97
"1954","ATWNG",48.03,15.02
"1955","ATWNK",47.93,13.38
"1956","ATWNO",46.72,15.2
"1957","ATWO4",48.13,13.43
"1958","ATWOF",46.85,14.83
"1959","ATWOL",48.07,15.05
"1960","ATWON",46.75,15.55
"1961","ATWOS",48.37,15.45
"1962","ATWPD",47.92,16.42
"1963","ATWPH",48.22,13.38
"1964","ATWRT",47.52,15.5
"1965","ATWS6",46.72,15.27
"1966","ATWSD",48.08,15.88
"1967","ATWSE",48.17,14.72
"1968","ATWSG",47.4,11.8
"1969","ATWSH",47.75,16
"1970","ATWSK",48.17,14.12
"1971","ATWST",48.05,14.58
"1972","ATWTB",47.22,16.1
"1973","ATWTD",47.43,12.22
"1974","ATWTG",48.22,15.28
"1975","ATWTH",48.23,13.95
"1976","ATWUF",48.45,13.8
"1977","ATWUL",47.8,16.5
"1978","ATWUP",46.52,13.75
"1979","ATWUR",47.77,16.05
"1980","ATWWT",48.38,16.52
"1981","ATWYR",47.85,14.65
"1982","ATWZK",48.33,13.87
"1983","ATXAE",48.1,14.8
"1984","ATYBB",48.17,15.08
"1985","ATYBS",47.93,14.88
"1986","ATZAB",47.92,16.42
"1987","ATZAC",48.2,15.77
"1988","ATZAD",48.1,13.57
"1989","ATZAE",47.4,15.47
"1990","ATZAM",47.15,10.58
"1991","ATZAS",47.32,12.78
"1992","ATZDD",48.33,15.9
"1993","ATZEN",48.1,16.42
"1994","ATZER",48.33,16.17
"1995","ATZEZ",47.22,11.88
"1996","ATZIE",48.52,15.92
"1997","ATZIN",48.32,15.67
"1998","ATZIP",48.03,13.5
"1999","ATZIR",47.28,11.22
"2000","ATZIS",48.53,16.75
"2001","ATZLF",48.7,16.05
"2002","ATZMD",47.75,16.45
"2003","ATZMO",47.9,13.32
"2004","ATZNG",48.48,15.68
"2005","ATZNH",47.8,12.98
"2006","ATZPE",48.05,13.57
"2007","ATZRF",48.65,16.65
"2008","ATZRS",47.17,10.17
"2009","ATZTG",46.95,15.42
"2010","ATZUR",47.97,17
"2011","ATZWD",48.6,16.43
"2012","ATZWT",48.6,15.17
"2013","ATZZG",48.02,13.02
"2014","AU2CO",-38.25,145.18
"2015","AU2IC",-37.87,144.67
"2016","AU2SN",-34.05,151.03
"2017","AU2TO",-37.58,145.03
"2018","AU2UA",-34.05,151.13
"2019","AU2VC",-37.97,145.15
"2020","AU2WS",-33.55,151.23
"2021","AU32S",-35.18,138.47
"2022","AU3CI",-38.13,145.43
"2023","AU3CO",-37.9,145.33
"2024","AU3WS",-34.05,151.1
"2025","AU4VC",-37.55,145.27
"2026","AU5CI",-37.92,145.38
"2027","AU5CO",-37.85,145.22
"2028","AU5RC",-37.93,144.72
"2029","AU5TO",-37.57,145.1
"2030","AU5WA",-21.25,118.3
"2031","AU6CO",-37.75,145.23
"2032","AU6DF",-33.92,150.85
"2033","AU6VC",-37.78,144.83
"2034","AU7BM",-35.07,147.33
"2035","AU7IC",-37.85,145.32
"2036","AU7WW",-33.85,151.2
"2037","AU8SS",-34.02,151.03
"2038","AU8VC",-37.7,144.77
"2039","AUA5T",-37.93,145.33
"2040","AUA6L",-38.25,145.02
"2041","AUA7A",-37.93,145.42
"2042","AUAAG",-34.02,139.67
"2043","AUABA",-37.8,145
"2044","AUABC",-35.93,142.42
"2045","AUABD",-32.17,150.9
"2046","AUABN",-34.02,138.68
"2047","AUABO",-27.7,153.25
"2048","AUABP",-19.9,148.08
"2049","AUABX",-36.08,146.92
"2050","AUACA",-27.58,153.02
"2051","AUACD",-33.62,151.03
"2052","AUACK",-27.35,152.98
"2053","AUACO",-31.93,115.92
"2054","AUADG",-35.28,138.48
"2055","AUADL",-34.92,138.58
"2056","AUAFD",-38.4,142.58
"2057","AUAFL",-27.57,153.02
"2058","AUAGA",-31.85,115.9
"2059","AUAGS",-34.32,115.17
"2060","AUAHK",-32.02,115.83
"2061","AUAHS",-27.38,152.95
"2062","AUAIR",-21.33,115.17
"2063","AUAKP",-34.9,138.52
"2064","AUALB",-33.75,151.25
"2065","AUALD",-35.02,138.73
"811000","AUALH",-35.02993,117.88819
"2066","AUALI",-33.28,115.72
"2067","AUALN",-34.4,150.5
"2068","AUALO",-35.32,148.07
"2069","AUALP",-20.27,148.72
"2070","AUALT",-37.87,144.83
"2071","AUALV",-38.23,143.5
"2072","AUALX",-33.9,151.22
"2073","AUALY",-34.95,138.6
"2074","AUAMD",-37.85,145.02
"2075","AUAMK",-38.1,145.72
"2076","AUAMN",-23.75,133.85
"2077","AUAMR",-12.92,141.62
"2078","AUANA",-42.83,147.3
"2079","AUANB",-33.6,150.7
"2080","AUAND",-33.6,138.63
"2081","AUANG",-34.5,139.03
"2082","AUANL",-27.48,153.02
"2083","AUANN",-33.88,151.17
"2084","AUAOK",-27.33,152.93
"2085","AUAPK",-34.57,150.78
"2086","AUAPP",-32.02,115.83
"2087","AUAPR",-34.85,138.53
"2088","AUAPT",-37.77,145.02
"2089","AUAPW",-37.73,144.88
"2090","AUAPY",-27.37,153.02
"2091","AUARA",-33.98,151.12
"2092","AUARC",-33.93,151.13
"821000","AUARD",-34.43267,137.9151
"2093","AUART",-33.82,151.18
"2094","AUASC",-27.43,152.97
"2095","AUASE",-38.42,144.17
"2096","AUASF",-31.92,115.93
"2097","AUASH",-34.93,138.73
"2098","AUASK",-16.78,145.67
"2099","AUASQ",-33.68,151.1
"2100","AUATA",-34.35,146.9
"2101","AUATH",-34.87,138.7
"2102","AUATK",-38.17,145.17
"2103","AUATL",-33.87,151
"2104","AUATN",-17.27,145.47
"2105","AUATO",-37.82,144.83
"2106","AUATT",-32.02,115.78
"2107","AUAUA",-32.15,116
"2108","AUAUB",-33.85,151.03
"2109","AUAUC",-36.22,145.32
"2110","AUAUK",-41.17,147.22
"2111","AUAVA",-37.18,145.7
"2112","AUAVE",-34.63,138.65
"2113","AUAVI",-28.83,153.43
"2114","AUAWD",-37.87,146
"2115","AUAWK",-27.57,152.58
"2116","AUAYB",-31.93,116.05
"2117","AUAYG",-13.85,136.42
"2118","AUB2P",-33.85,150.88
"2119","AUB3B",-38.05,145.12
"2120","AUB5P",-38.2,145.75
"2121","AUBA2",-33.83,151.22
"2122","AUBAA",-34.98,138.83
"2123","AUBAE",-32.4,150.48
"831000","AUBAH",-35.77152,137.78228
"2124","AUBAL",-38.37,145.13
"2125","AUBAN",-36.15,146.93
"2126","AUBAR",-38.7,146.38
"2127","AUBAS",-31.9,115.93
"2128","AUBAY",-28.65,153.62
"2129","AUBBA",-28.02,153.43
"2130","AUBBC",-33.88,151.27
"2131","AUBBG",-15.6,136.35
"2132","AUBBL",-34.27,146.1
"2133","AUBBR",-28.7,153.5
"2134","AUBBT",-26.88,152.1
"2135","AUBBU",-36.82,149.28
"2136","AUBBW",-33.88,151.1
"2137","AUBBY",-34.38,119.37
"2138","AUBCB",-30.82,117.85
"2139","AUBCE",-37.7,145.52
"841000","AUBCH",-37.48074,140.01314
"2140","AUBCO",-33.77,150.9
"2141","AUBCR",-27.32,153.03
"2142","AUBDA",-32.42,152.2
"851000","AUBDB",-24.7726,152.38567
"2143","AUBDE",-27.32,152.97
"2144","AUBDF",-35.03,138.57
"2145","AUBDM",-27.62,152.8
"2146","AUBDN",-37.32,143.17
"2147","AUBDY",-34.85,150.62
"2148","AUBE9",-33.73,151.22
"2149","AUBEA",-41.2,146.82
"2150","AUBEC",-31.03,115.95
"2151","AUBEG",-33.8,151.25
"86639","AUBEL",-41.13518,146.85943
"2152","AUBEM",-33.92,151.1
"2153","AUBEN",-37.92,145.03
"2154","AUBER",-34.28,140.6
"2155","AUBET",-31.93,115.92
"2156","AUBEV",-30.83,121.18
"2157","AUBEW",-27.42,153.6
"2158","AUBEX",-31.9,116.02
"2159","AUBEY",-28.77,153.12
"2160","AUBFD",-32.8,151.65
"2161","AUBFR",-37.2,145.07
"2162","AUBGA",-32.38,152.43
"2163","AUBGB",-28.43,153.48
"2164","AUBGE",-38.35,144.77
"2165","AUBGG",-27.92,153.38
"2166","AUBGO",-32.03,115.83
"2167","AUBGT",-33.97,116.13
"2168","AUBGW",-28.68,153.52
"2169","AUBGY",-35.58,145.35
"2170","AUBHH",-36.37,146.72
"2171","AUBIB",-27.65,153.08
"2172","AUBIC",-41.87,148.28
"2173","AUBIG",-28.17,153.52
"2174","AUBIL",-28.5,153.53
"2175","AUBIN",-33.15,115.68
"2176","AUBIR",-34.83,138.5
"2177","AUBIY",-33.93,150.73
"2178","AUBJT",-33.88,151.23
"2179","AUBJU",-30.1,148.97
"2180","AUBKD",-27.48,153.22
"2181","AUBKE",-33.35,151.43
"2182","AUBKH",-33.75,151
"2183","AUBKL",-37.82,144.83
"2184","AUBKO",-34.33,146.97
"2185","AUBKR",-34.63,117.67
"2186","AUBKT",-32.38,117
"2187","AUBLA",-32.07,115.82
"2188","AUBLB",-33.08,151.52
"2189","AUBLC",-35.23,149.07
"2190","AUBLD",-30.78,121.48
"2191","AUBLE",-19.2,146.72
"2192","AUBLG",-27.72,153.2
"2193","AUBLH",-28.1,153.45
"2194","AUBLI",-27.67,152.32
"2195","AUBLK",-34.15,138.42
"2196","AUBLL",-31.67,116
"2197","AUBLM",-33.87,151.18
"2198","AUBLP",-11.15,132.15
"2199","AUBLV",-33.73,150.95
"2200","AUBLW",-16.92,145.77
"2201","AUBLY",-37.82,145
"2202","AUBM5",-30.88,151.17
"2203","AUBMA",-36.92,149.23
"2204","AUBMD",-29.85,152.3
"87100","AUBME",-18.004,122.20754
"2205","AUBMK",-36.63,149.57
"2206","AUBMO",-33.95,151.22
"2207","AUBMR",-34.43,150.48
"2208","AUBMS",-37.67,144.43
"2209","AUBMU",-34.17,148.45
"2210","AUBNE",-27.47,153.02
"2211","AUBNG",-34.67,148.63
"2212","AUBNM",-36.8,140.93
"2213","AUBNN",-38.05,144.17
"2214","AUBNT",-32.02,115.77
"2215","AUBNW",-36.1,146.67
"2216","AUBNX",-37.77,145.08
"2217","AUBNY",-33.53,149.25
"2218","AUBOA",-27.18,152.83
"2219","AUBOB",-31.72,152.28
"2220","AUBOD",-27.33,153.05
"2221","AUBOH",-33.75,151.25
"2222","AUBOI",-23.93,151.35
"2223","AUBOL",-36.6,143.95
"2224","AUBOO",-10.6,141.92
"2225","AUBOT",-36.12,143.72
"2226","AUBOU",-34.7,143.15
"2227","AUBOV",-14.4,129.35
"2228","AUBOW",-30.78,121.45
"2229","AUBOY",-42.83,147.3
"2230","AUBPG",-27.17,152.95
"2231","AUBPK",-34.92,138.53
"2232","AUBPO",-41,147.4
"2233","AUBPR",-38,145.42
"2234","AUBPT",-23.83,151.27
"2235","AUBQ9",-27.5,153.12
"2236","AUBQY",-34,151.05
"2237","AUBR2",-33.67,138.93
"2238","AUBR7",-34.93,138.77
"2239","AUBRB",-37.78,144.85
"2240","AUBRD",-36.37,148.82
"2241","AUBRE",-34.25,140.47
"2242","AUBRG",-35.67,145.82
"2243","AUBRH",-38.28,144.5
"2244","AUBRI",-31.17,148.78
"2245","AUBRL",-34.3,146.57
"2246","AUBRM",-12.42,130.92
"2247","AUBRN",-34.93,148.67
"2248","AUBRO",-35.02,138.52
"2249","AUBRP",-20.57,116.8
"2250","AUBRQ",-25.6,152.27
"2251","AUBRR",-38.42,146.07
"2252","AUBRS",-37.98,145.12
"89100","AUBRT",-11.76052,130.63882
"2253","AUBRU",-37.77,144.95
"2254","AUBRW",-26.85,150.78
"2255","AUBSA",-33.95,151.15
"2256","AUBSH",-33.97,151
"90100","AUBTB",-33.96797,151.20737
"2257","AUBTN",-34.92,138.57
"2258","AUBTO",-35.52,148.13
"2259","AUBTT",-31.85,115.85
"2260","AUBTV",-37.92,145
"2261","AUBUA",-34.02,142.18
"2262","AUBUB",-33.37,151.48
"2263","AUBUC",-17.73,139.53
"2264","AUBUL",-34.3,150.92
"2265","AUBUN",-37.68,145.05
"2266","AUBUO",-34.73,138.6
"91100","AUBUS",-33.64839,115.34872
"2267","AUBUT",-34.93,138.65
"2268","AUBUW",-37.85,145.1
"92100","AUBUY",-33.32228,115.66959
"2269","AUBVD",-35.3,138.93
"2270","AUBVE",-33.75,151.27
"2271","AUBVL",-37.32,147.6
"2272","AUBVS",-34.88,138.53
"2273","AUBVV",-35.23,143.47
"2274","AUBVY",-32.12,116.92
"2275","AUBW5",-34.35,139.6
"2276","AUBWA",-34.47,150.42
"93100","AUBWB",-20.78873,115.46166
"2277","AUBWD",-35.02,138.6
"2278","AUBWE",-37.85,145.15
"2279","AUBWG",-34.77,148.82
"2280","AUBWI",-27.07,153.37
"2281","AUBWK",-37.77,144.97
"2282","AUBWL",-33.8,151.25
"2283","AUBWN",-37.8,145.07
"2284","AUBWO",-31.95,115.88
"2285","AUBWS",-35.17,138.6
"94100","AUBWT",-41.0546,145.90797
"2286","AUBWV",-27.32,151.48
"2287","AUBWW",-27.43,153.03
"2288","AUBXA",-34.08,151.15
"2289","AUBXH",-37.82,145.13
"2290","AUBXI",-33.65,150.88
"2291","AUBXT",-38.2,145.15
"2292","AUBYA",-34.23,146.35
"2293","AUBYB",-33.83,116.38
"2294","AUBYD",-27.37,153.07
"2295","AUBYF",-32.22,116
"2296","AUBYN",-20.88,116.67
"2297","AUBYS",-37.83,145.32
"2298","AUBYU",-33.48,115.72
"2299","AUBYV",-33.65,151.28
"2300","AUBYW",-31.92,115.92
"2301","AUBYY",-37.87,147.03
"2302","AUBZU",-34.07,151.13
"2303","AUC6K",-33.48,150.9
"2304","AUC8M",-33.1,151.65
"2305","AUC8R",-34.77,139
"2306","AUCAB",-27.08,152.95
"2307","AUCAD",-38.08,145.18
"2308","AUCAH",-27.47,153.08
"95100","AUCAL",-26.80515,153.12751
"2309","AUCAM",-37.83,145.07
"2310","AUCAO",-33.68,151.12
"2311","AUCAP",-27.52,153.18
"2312","AUCAR",-27.5,153.08
"2313","AUCAS",-33.67,150.68
"2314","AUCAV",-34.82,138.58
"2315","AUCAY",-24.93,152.37
"2316","AUCBA",-38.12,144.43
"2317","AUCBD",-31.6,115.7
"2318","AUCBG",-37.75,144.97
"2319","AUCBK",-33.72,150.7
"2320","AUCBO",-36.63,146.55
"2321","AUCBU",-33.3,150.03
"2322","AUCC2",-33.77,151.28
"2323","AUCCH",-38.32,146.42
"2324","AUCCR",-35.45,138.77
"2325","AUCCS",-34.83,138.82
"2326","AUCDE",-26.93,150.13
"2327","AUCDF",-32.95,151.67
"2328","AUCDI",-31.65,117.23
"2329","AUCDL",-27.5,153.1
"2330","AUCDN",-35.12,138.63
"2331","AUCDO",-34.88,138.55
"2332","AUCDR",-25.17,152.22
"2333","AUCDS",-33.5,151.07
"2334","AUCDX",-30.77,117.13
"2335","AUCEE",-41.07,145.88
"2336","AUCEI",-37.8,144.9
"2337","AUCER",-33.72,151.28
"2338","AUCFL",-37.68,144.95
"96100","AUCFS",-30.30341,153.14147
"2339","AUCFT",-27.92,151.92
"2340","AUCG4",-33.42,148.82
"2341","AUCGA",-30.95,121.15
"2342","AUCGE",-36.78,140.7
"2343","AUCGL",-34.97,138.77
"2344","AUCHD",-37.88,145.07
"2345","AUCHE",-27.38,153.17
"2346","AUCHF",-33.97,151.23
"2347","AUCHI",-33.73,151
"2348","AUCHL",-37.97,145.03
"2349","AUCHN",-33.9,150.95
"2350","AUCHS",-25.28,152.28
"2351","AUCHT",-31.48,116.1
"2352","AUCHU",-33.9,151.05
"2353","AUCIA",-33.82,151.02
"2354","AUCKM",-32.23,152.47
"2355","AUCLA",-34.82,147.2
"2356","AUCLB",-31.02,146.7
"2357","AUCLC",-35.67,147.03
"2358","AUCLD",-37.88,145.02
"2359","AUCLF",-33.78,151.05
"2360","AUCLI",-35.03,138.52
"2361","AUCLM",-31.98,115.78
"97100","AUCLN",-34.35463,115.16699
"2362","AUCLO",-27.97,151.22
"2363","AUCLP",-35,138.57
"98100","AUCLR",-29.40776,153.34921
"2364","AUCLU",-28.73,153.42
"2365","AUCLY",-37.92,145.12
"2366","AUCMB",-42.83,147.45
"2367","AUCMN",-33.83,151.22
"2368","AUCMO",-34,151.07
"2369","AUCMP",-33.88,151.17
"2370","AUCMR",-37.83,145
"2371","AUCMT",-34.88,138.67
"2372","AUCN6",-28.23,153.55
"2373","AUCNE",-31.83,115.78
"2374","AUCNN",-32.07,115.93
"99100","AUCNS",-16.9312,145.77892
"2375","AUCNT",-32.02,115.95
"2376","AUCNW",-37.3,140.82
"2377","AUCO2",-38.27,144.4
"2378","AUCOB",-15.57,130.97
"2379","AUCOG",-33.07,151.45
"2380","AUCOL",-37.65,144.93
"2381","AUCOM",-36.23,149.13
"2382","AUCON",-36.6,144.78
"2383","AUCOO",-27.88,153.3
"2384","AUCOT",-34.08,151.02
"2385","AUCOU",-26.55,153.08
"2386","AUCOW",-33.87,115.08
"2387","AUCPA",-42.67,147.42
"2388","AUCPB",-35.3,149.15
"2389","AUCPC",-37.1,144.22
"2390","AUCPH",-34.98,138.6
"2391","AUCPL",-33.57,115.57
"100100","AUCPN",-20.84135,116.20503
"2392","AUCPR",-27.5,153.05
"2393","AUCPT",-38.35,145.2
"2394","AUCPW",-38.23,143.15
"101100","AUCQP",-14.98212,145.35109
"2395","AUCR2",-42.87,147.68
"2396","AUCRA",-28.02,153.37
"2397","AUCRE",-27.68,153.08
"2398","AUCRF",-35,138.7
"2399","AUCRG",-34.05,151.13
"2400","AUCRI",-34.47,150.88
"2401","AUCRK",-27.68,153.27
"2402","AUCRL",-23.13,113.77
"2403","AUCRO",-37.78,142.15
"2404","AUCRR",-32.67,152.17
"2405","AUCRS",-19.08,150.9
"2406","AUCRT",-37.8,144.97
"2407","AUCRU",-34.05,151.15
"2408","AUCRV",-35.05,138.62
"2409","AUCRW",-31.98,115.82
"2410","AUCRX",-37.8,145.28
"2411","AUCSM",-37.05,144.22
"2412","AUCST",-37.72,145.37
"2413","AUCSX",-33.8,151.22
"2414","AUCTB",-30.72,115.5
"2415","AUCTC",-33.78,151.2
"2416","AUCTE",-32,115.77
"2417","AUCTF",-33.8,151.25
"2418","AUCTH",-21.45,114.98
"2419","AUCTI",-16.1,123.62
"102100","AUCTN",-15.458,145.25179
"2420","AUCTT",-37.63,145.22
"2421","AUCUI",-23.52,151.22
"2422","AUCUL",-26.68,150.33
"2423","AUCUN",-37.87,14.85
"2424","AUCUR",-28.15,153.45
"2425","AUCVA",-37.6,144.93
"2426","AUCVL",-33.9,151.25
"2427","AUCVN",-27.53,153.27
"2428","AUCVP",-33.98,151.08
"103100","AUCVQ",-24.89316,113.65442
"2429","AUCVS",-31.88,115.97
"2430","AUCWI",-29.38,153.23
"2431","AUCWK",-33.83,121.88
"2432","AUCWN",-33.82,151.2
"2433","AUCXE",-33.92,151.27
"2434","AUCYB",-33.72,151.03
"2435","AUCYD",-33.83,151.02
"2436","AUCZA",-28.3,153.57
"2437","AUD8N",-33.67,151.02
"2438","AUDA5",-34.6,138.5
"2439","AUDAG",-26.98,152.8
"2440","AUDAL",-34.72,149.18
"104100","AUDAM",-20.66442,116.70487
"2441","AUDAR",-33.4,115.75
"2442","AUDBP",-33.87,151.13
"2443","AUDCG",-31.82,115.77
"2444","AUDCH",-32.07,115.82
"2445","AUDCK",-34.83,138.58
"2446","AUDCN",-17.57,123.82
"2447","AUDCR",-37.78,145.13
"2448","AUDCV",-33.92,151.22
"2449","AUDDK",-31.58,117.85
"2450","AUDDO",-32.02,149.4
"2451","AUDDP",-34.87,138.57
"2452","AUDEB",-27.2,153.03
"2453","AUDEN",-32.38,150.68
"2454","AUDEV",-41.23,146.93
"2455","AUDGA",-32.67,152.15
"2456","AUDGO",-32.42,151.75
"2457","AUDGQ",-38.25,141.95
"2458","AUDGY",-37.98,145.13
"2459","AUDHI",-12.25,135.08
"2460","AUDIA",-37.67,145.15
"2461","AUDIC",-35.25,149.13
"2462","AUDIL",-34.92,138.55
"2463","AUDIR",-34.72,138.6
"2464","AUDIT",-9.6,143.3
"2465","AUDJR",-21.68,139.52
"2466","AUDLB",-33.87,151.23
"2467","AUDLH",-35.08,138.6
"2468","AUDLP",-33.78,150.87
"2469","AUDLT",-31.92,116.08
"2470","AUDLY",-34.05,151.12
"2471","AUDMA",-34.97,117.35
"2472","AUDMO",-38.18,145.42
"2473","AUDNA",-38.33,144.97
"2474","AUDNS",-33.77,150.87
"2475","AUDOC",-43.08,147.02
"2476","AUDOI",-33.87,151.23
"2477","AUDOK",-37.82,144.93
"2478","AUDON",-11.32,131.75
"2479","AUDOW",-32.18,115.97
"2480","AUDPK",-37.77,144.78
"105100","AUDPO",-41.18178,146.36306
"2481","AUDPP",-33.88,151.2
"2482","AUDPW",-29.43,151.85
"106100","AUDRB",-17.29159,123.60922
"2483","AUDRE",-33.85,151.15
"2484","AUDRO",-33.58,115.82
"2485","AUDRU",-38.13,145.85
"2486","AUDRW",-12.45,130.83
"2487","AUDRY",-38.17,144.57
"2488","AUDSB",-33.6,115.1
"2489","AUDSW",-33.95,151.03
"2490","AUDTO",-34.5,150.78
"2491","AUDTP",-34.57,146
"2492","AUDUK",-27.52,153.25
"2493","AUDUL",-34.93,138.63
"2494","AUDVE",-37.8,145.18
"2495","AUDVI",-37.82,144.73
"2496","AUDVS",-33.73,151.2
"2497","AUDVT",-37.98,145.23
"2498","AUDWH",-33.75,151.3
"2499","AUDXK",-37.6,145.42
"2500","AUE4E",-37.63,144.87
"2501","AUEAA",-12.47,130.92
"2502","AUEAB",-29.8,115.1
"2503","AUEBB",-34.42,139.03
"2504","AUEBN",-27.48,153.03
"2505","AUEBO",-33.12,146.47
"2506","AUECK",-21.68,120.62
"2507","AUECR",-33.78,150.85
"2508","AUEDC",-40.97,145.1
"2509","AUEDE",-34.65,139.1
"2510","AUEDI",-36.65,146.43
"2511","AUEDW",-34.97,138.57
"2512","AUEEK",-36.95,145.85
"2513","AUEGO",-35.25,149.43
"2514","AUEHS",-33.97,150.98
"2515","AUEJB",-36.4,148.67
"2516","AUEKW",-37.42,143.92
"2517","AUELB",-11.9,136.55
"2518","AUELF",-27.43,153.08
"2519","AUELT",-37.73,145.15
"2520","AUELW",-37.88,145
"2521","AUELZ",-34.72,138.65
"2522","AUEML",-32.75,151.58
"2523","AUEMP",-33.75,150.67
"2524","AUENG",-34.07,151.02
"2525","AUEPG",-33.78,151.08
"2526","AUEPK",-33.8,150.8
"2527","AUEPP",-37.65,145.03
"108100","AUEPR",-33.87047,121.89517
"2528","AUEPT",-31.95,115.87
"2529","AUERL",-33.95,151.1
"2530","AUERM",-33.82,151.05
"2531","AUERN",-33.43,151.38
"2532","AUERS",-33.9,151.18
"2533","AUESM",-36.72,144.32
"2534","AUESS",-38.45,145.23
"2535","AUEUA",-36.75,145.57
"2536","AUEUG",-35.1,138.8
"2537","AUEUK",-41.57,147.17
"2538","AUEUM",-26.48,152.95
"2539","AUEVL",-12.67,141.85
"2540","AUEVP",-41.18,146.38
"2541","AUEVT",-41.58,147.23
"2542","AUEWD",-33.8,151.08
"2543","AUEWO",-37.88,144.98
"2544","AUEXO",-41.52,146.75
"2545","AUEYM",-33.52,151.2
"2546","AUFCY",-37.8,144.9
"2547","AUFDS",-38.47,145.02
"2548","AUFEL",-51.97,1.35
"2549","AUFFD",-33.87,150.95
"2550","AUFFH",-33.88,151.12
"2551","AUFFL",-37.78,145
"2552","AUFFO",-33.73,151.22
"2553","AUFGS",-33.42,115.83
"2554","AUFIN",-34.9,138.53
"2555","AUFIT",-37.8,144.97
"2556","AUFLD",-34.37,114.07
"2557","AUFLI",-34.45,138.8
"2558","AUFLN",-38.17,146.68
"2559","AUFOD",-33.33,151.38
"2560","AUFOR",-38.1,145.13
"2561","AUFRD",-34.85,138.55
"109100","AUFRE",-32.09837,115.76066
"2562","AUFRG",-26.67,153
"2563","AUFRK",-38.13,145.13
"2564","AUFRL",-34.95,138.63
"2565","AUFRR",-32.13,115.93
"2566","AUFRY",-38.37,142.23
"2567","AUFTD",-31.98,116
"2568","AUFTH",-33.8,151.23
"2569","AUFTN",-34.22,149.55
"2570","AUFTP",-27.52,152.95
"2571","AUFUK",-43,147.03
"2572","AUFUR",-32.55,115.75
"2573","AUFVN",-20.9,114.88
"2574","AUFWT",-33.77,151.28
"2575","AUFYW",-35.32,149.15
"2576","AUG8K",-35.47,143.65
"2577","AUGAN",-27.55,152.28
"2578","AUGAP",-36.52,146.68
"2579","AUGBH",-34.02,151.03
"2580","AUGBT",-19.27,146.77
"2581","AUGBY",-43.13,147.05
"2582","AUGCE",-32.02,151.97
"2583","AUGCR",-33.9,151.05
"2584","AUGCY",-42.83,147.28
"2585","AUGDA",-35.07,148.1
"2586","AUGDN",-27.62,152.9
"2587","AUGDY",-34.88,138.65
"2588","AUGEM",-37.95,145.55
"2589","AUGEP",-34.85,138.6
"110100","AUGET",-28.77672,114.59219
"111100","AUGEX",-38.14365,144.35681
"2590","AUGFS",-34.78,138.6
"2591","AUGGG",-34.98,138.52
"2592","AUGGN",-38.12,144.33
"2593","AUGGO",-34.75,146.78
"2594","AUGGP",-34.55,150.53
"2595","AUGGQ",-32.5,150.92
"2596","AUGGR",-37.65,145.22
"2597","AUGGS",-34.83,138.77
"2598","AUGGT",-31.83,116.02
"2599","AUGGV",-36.82,144.95
"2600","AUGGW",-29.3,152.72
"2601","AUGGX",-32.08,116
"2602","AUGGY",-31.95,116.05
"2603","AUGGZ",-38.12,146.57
"2604","AUGH6",-35.17,149.22
"2605","AUGHU",-33.88,151.22
"2606","AUGHV",-33.7,151
"2607","AUGIL",-34.82,138.52
"2608","AUGIR",-37.38,143.77
"2609","AUGLA",-33.83,152.33
"2610","AUGLC",-37.12,143.22
"2611","AUGLD",-21.35,148.1
"2612","AUGLE",-33.97,150.9
"2613","AUGLN",-33.73,150.85
"2614","AUGLO",-34.6,148.57
"2615","AUGLS",-34.27,140.52
"112100","AUGLT",-23.83063,151.23988
"2616","AUGLW",-37.88,145.17
"2617","AUGMA",-34.8,147.03
"2618","AUGME",-23.43,150.45
"2619","AUGMV",-36.35,145.43
"2620","AUGNA",-21.12,149.15
"2621","AUGNI",-31.35,115.9
"2622","AUGNU",-28.87,114.67
"2623","AUGNW",-33.83,151.17
"2624","AUGOA",-35.5,138.78
"2625","AUGOC",-28,153.43
"2626","AUGOH",-12.22,136.67
"2627","AUGON",-33.65,151.05
"2628","AUGOR",-37.58,144.1
"113100","AUGOV",-12.19841,136.67919
"2629","AUGOW",-30.12,153.2
"2630","AUGRA",-40.05,144.05
"2631","AUGRB",-41.3,146.97
"2632","AUGRE",-33.82,150.92
"2633","AUGRF",-32.52,115.75
"2634","AUGRG",-34.75,150.85
"2635","AUGRI",-33.6,151.02
"2636","AUGRK",-34.47,138.92
"2637","AUGRN",-33.83,151.02
"2638","AUGRO",-33.97,151.1
"2639","AUGRS",-33.33,115.67
"2640","AUGRT",-34.05,151.08
"2641","AUGRU",-37.73,145.45
"2642","AUGRW",-33.8,150.93
"2643","AUGRZ",-34.9,138.48
"2644","AUGSO",-27.5,153.02
"2645","AUGST",-28.03,153.3
"2646","AUGTH",-27.58,152.2
"2647","AUGTN",-34.9,138.6
"2648","AUGTW",-37.15,142.85
"2649","AUGU9",-36.73,144.2
"2650","AUGUG",-27.37,153.03
"2651","AUGUM",-34.83,138.88
"2652","AUGUN",-34.78,149.27
"2653","AUGUR",-38.37,145.55
"2654","AUGVL",-27.52,152.98
"2655","AUGVW",-31.65,116.8
"2656","AUGWA",-31.82,115.78
"2657","AUGWG",-33.95,118
"2658","AUGWT",-38.13,144.35
"2659","AUGXM",-32.97,151.68
"2660","AUGXN",-34.6,138.73
"2661","AUGXQ",-38.1,144.35
"2662","AUGXR",-33.72,150.42
"2663","AUGXW",-34.18,142.22
"2664","AUGYJ",-34.35,117.1
"2665","AUGYM",-34.48,117.65
"2666","AUGYN",-34.02,151.08
"2667","AUGYU",-37.25,144.43
"2668","AUGYW",-27.47,151.83
"2669","AUGYX",-26.95,152.55
"2670","AUGYZ",-34.78,138.85
"2671","AUH3N",-28.07,151.95
"2672","AUH8S",-33.72,150.87
"2673","AUHAB",-33.87,151.13
"2674","AUHAH",-35.03,138.8
"2675","AUHAL",-18.58,146.28
"2676","AUHAM",-38.33,145.25
"2677","AUHAR",-37,144.25
"2678","AUHAS",-38.3,145.25
"2679","AUHAY",-33.87,151.2
"2680","AUHAZ",-31.9,115.98
"2681","AUHBA",-42.87,147.3
"2682","AUHBE",-32.78,151.73
"2683","AUHBS",-33.87,151.05
"2684","AUHBW",-37.73,145.03
"2685","AUHCG",-37.87,144.68
"2686","AUHDC",-37.95,141.75
"2687","AUHDD",-37.83,145.58
"2688","AUHDN",-34.55,148.38
"2689","AUHEA",-27.47,152.98
"2690","AUHEE",-36.75,146.32
"2691","AUHEI",-37.75,145.07
"2692","AUHEL",-27.55,152.13
"2693","AUHEM",-27.45,153.13
"2694","AUHEN",-27.42,153.27
"2695","AUHET",-37.83,145.25
"2696","AUHEY",-37.98,146.78
"2697","AUHFR",-32.17,115.77
"2698","AUHGH",-37.88,145.93
"2699","AUHH5",-32.93,151.75
"2700","AUHHL",-35.17,149.07
"2701","AUHHT",-37.93,145.03
"2702","AUHHW",-33.83,151.13
"2703","AUHL2",-34.12,138.12
"2704","AUHLB",-34.92,138.48
"2705","AUHLK",-27.52,153.07
"2706","AUHLR",-31.8,115.73
"2707","AUHMC",-38.37,145.18
"2708","AUHML",-32.92,151.73
"2709","AUHMS",-34.9,138.57
"2710","AUHNK",-18.38,146.28
"2711","AUHOC",-36.27,143.35
"2712","AUHOE",-41.08,145.93
"2713","AUHOL",-34.85,138.67
"2714","AUHOR",-33.07,138.52
"2715","AUHOY",-33.7,151.1
"2716","AUHPK",-33.85,150.85
"2717","AUHPL",-27.87,153.35
"2718","AUHPN",-33.65,150.05
"2719","AUHPO",-28.35,153.57
"2720","AUHPP",-35.08,138.53
"115100","AUHPT",-21.28035,149.2874
"2721","AUHSD",-37.83,147.5
"2722","AUHSV",-37.65,145.52
"2723","AUHTE",-37.82,145.03
"2724","AUHTH",-36.92,144.72
"2725","AUHTO",-34.92,138.57
"2726","AUHTT",-35.07,138.5
"2727","AUHTW",-33.78,150.88
"2728","AUHTY",-35.53,147.03
"2729","AUHUD",-12.58,131.12
"2730","AUHUM",-35.38,149.17
"2731","AUHUR",-33.95,151.1
"2732","AUHVI",-43.03,147.03
"2733","AUHVY",-33.08,115.88
"2734","AUHWD",-34.33,146.03
"2735","AUHWN",-32.67,152.17
"2736","AUHWO",-35.98,146.62
"2737","AUHWR",-35.02,138.62
"2738","AUHWY",-31.93,116
"2739","AUHY5",-38.38,145.43
"2740","AUHYD",-32.45,118.87
"2741","AUICL",-25.22,152.45
"2742","AUIGA",-34.55,142.38
"2743","AUIGF",-34.83,138.63
"2744","AUIGG",-34.02,151.07
"2745","AUIGL",-33.92,151.22
"2746","AUIGN",-34,150.87
"2747","AUIGR",-33.75,150.75
"2748","AUIGV",-33.95,151.15
"2749","AUIGX",-33.98,151.23
"2750","AUIHO",-32.93,144.28
"2751","AUILL",-37.65,145.23
"2752","AUILM",-37.87,144.83
"2753","AUIMR",-37.63,142.48
"2754","AUIMV",-31.88,116.02
"2755","AUIMY",-41.42,147.13
"2756","AUINN",-31.88,115.78
"2757","AUINR",-34.07,151.12
"2758","AUINV",-38.63,145.72
"2759","AUIRY",-34.25,142.17
"2760","AUITH",-13.6,123.3
"2761","AUIUH",-33.87,151.25
"2762","AUIVE",-33.73,151.17
"2763","AUIWS",-34.88,138.62
"2764","AUJAC",-26.65,149.62
"2765","AUJAR",-32.35,116.07
"2766","AUJBH",-27.55,152.93
"2767","AUJDE",-35.35,145.73
"2768","AUJDP",-31.73,115.77
"2769","AUJEB",-35.12,150.68
"2770","AUJGA",-31.77,152.53
"2771","AUJGF",-34.05,150.83
"2772","AUJGH",-34.07,151.12
"2773","AUJGL",-34.05,151.05
"2774","AUJGN",-34.02,150.9
"2775","AUJGO",-33.82,151.15
"2776","AUJGR",-33.98,151.03
"2777","AUJIM",-27.83,153.03
"2778","AUJML",-31.65,152.8
"2779","AUJMR",-35.32,149.15
"2780","AUJNE",-34.87,147.58
"2781","AUJST",-33.2,138.6
"2782","AUJSW",-32.5,150.92
"2783","AUJUK",-38.48,142.98
"2784","AUJWI",-33.57,148.67
"2785","AUKAA",-33.77,151.15
"2786","AUKAD",-33.97,137.72
"2787","AUKAN",-35.15,138.65
"2788","AUKAP",-34.35,138.9
"2789","AUKAR",-32.07,115.8
"2790","AUKAW",-26.75,153.08
"2791","AUKAY",-41.18,146.88
"2792","AUKBG",-30.83,119.55
"2793","AUKBI",-31.63,117.7
"2794","AUKBO",-38.02,145.17
"2795","AUKBP",-33.83,151.22
"2796","AUKDA",-31.6,152.73
"2797","AUKEA",-27.52,152.93
"2798","AUKED",-27.38,153.03
"2799","AUKEE",-36.5,142.42
"2800","AUKEI",-36.1,140.35
"2801","AUKEL",-33.42,149.6
"2802","AUKEM",-34.48,150.88
"2803","AUKEN",-37.68,145
"2804","AUKER",-36.62,143.75
"2805","AUKEW",-32.62,116.55
"2806","AUKEY",-34.57,139.13
"2807","AUKGA",-34.43,150.82
"116100","AUKGC",-35.65566,137.6387
"2808","AUKGF",-36.78,144.23
"2809","AUKGG",-33.95,151.1
"2810","AUKGL",-29.95,153.02
"2811","AUKGN",-35.3,149.13
"2812","AUKGO",-37.67,145.25
"2813","AUKGT",-37.78,144.92
"2814","AUKIA",-16.92,145.72
"117100","AUKIB",-39.92795,143.8452
"2815","AUKIL",-37.3,144.95
"2816","AUKJH",-34.9,138.53
"2817","AUKKD",-22.5,142.37
"2818","AUKKQ",-32.82,151.47
"2819","AUKLB",-34.85,138.58
"2820","AUKLL",-38.92,145.6
"2821","AUKLR",-37.72,144.83
"2822","AUKLT",-31.98,115.78
"2823","AUKLU",-33.22,151.22
"2824","AUKLZ",-34.87,138.63
"2825","AUKMB",-35.38,149.07
"2826","AUKNE",-34.52,138.52
"2827","AUKNG",-35.53,139.1
"2828","AUKNO",-37.82,144.97
"2829","AUKNT",-33.67,151
"2830","AUKNW",-28.77,153.53
"2831","AUKNY",-36.8,144.7
"2832","AUKOM",-36.2,147.47
"2833","AUKPK",-33.73,150.9
"2834","AUKRB",-17.48,140.83
"2835","AUKRK",-41.43,147.15
"2836","AUKRM",-38.43,145.82
"2837","AUKRR",-34.3,117.53
"2838","AUKRW",-34.03,151.07
"2839","AUKST",-32.12,116.02
"2840","AUKSU",-30.83,151.18
"2841","AUKSY",-37.8,145.32
"2842","AUKTB",-33.72,150.32
"2843","AUKTN",-10.6,126.18
"2844","AUKTT",-34.92,138.62
"2845","AUKU7",-34.95,138.58
"2846","AUKUD",-31.97,116.05
"2847","AUKUK",-42.5,147.9
"2848","AUKUN",-31.2,152.85
"2849","AUKUP",-26.65,153.03
"2850","AUKWA",-34.03,148.55
"118100","AUKWI",-32.23544,115.76192
"2851","AUKWL",-34.43,139.05
"2852","AUKWR",-38.2,145.48
"2853","AUKWT",-27.63,153.08
"2854","AUKYA",-36.32,145.05
"2855","AUKYV",-33.35,151.45
"2856","AUL7E",-37.9,145.35
"2857","AULAA",-41.25,147.18
"2858","AULAM",-37.13,143.52
"2859","AULAN",-12.08,135.35
"2860","AULAR",-27.95,153.38
"2861","AULAU",-37.38,142.75
"2862","AULAW",-34,151.03
"2863","AULBY",-34.82,138.48
"2864","AULCG",-33.32,146.38
"2865","AULDB",-33.87,151.03
"2866","AULDE",-41.42,147.35
"119100","AULDH",-31.52319,159.05859
"2867","AULEH",-36.68,144.07
"2868","AULEI",-33.88,151.15
"2869","AULEN",-37.88,147.98
"2870","AULET",-37.97,144.13
"2871","AULEY",-27.55,152.98
"2872","AULFD",-32.67,151.28
"2873","AULGA",-38.47,145.93
"2874","AULGF",-30.77,151.12
"2875","AULGN",-34.82,138.48
"2876","AULGR",-35.28,139.33
"2877","AULH4",-34.6,138.88
"2878","AULHC",-37.77,145.57
"2879","AULHI",-35.6,148.1
"2880","AULHM",-35.27,149.13
"2881","AULHT",-35.05,138.85
"2882","AULHW",-34.03,150.97
"2883","AULIM",-33.98,138.65
"2884","AULIN",-42.83,147.35
"2885","AULJY",-33.35,151.48
"2886","AULKA",-35.22,146.72
"2887","AULKB",-33.92,151.08
"2888","AULKW",-36.83,144.15
"2889","AULLD",-28.8,151.83
"2890","AULLE",-34.88,138.65
"2891","AULLN",-36.72,144.7
"2892","AULLS",-38.52,145.87
"2893","AULMQ",-33.07,151.6
"2894","AULNA",-41.37,147.05
"2895","AULNC",-33.82,151.17
"2896","AULND",-33.78,151.17
"2897","AULNE",-36.82,143.9
"2898","AULNG",-35,138.72
"2899","AULOB",-34.9,138.87
"2900","AULOW",-33.38,151.37
"2901","AULOX",-34.43,140.57
"2902","AULPS",-34.45,139.17
"2903","AULPY",-37.73,145.12
"2904","AULRA",-38,144.4
"2905","AULRD",-33.45,150.88
"2906","AULRI",-37.97,144.5
"2907","AULRM",-33.18,148.68
"2908","AULRP",-27.65,153
"2909","AULSD",-35.1,138.48
"120100","AULST",-41.42772,147.1233
"2910","AULSV",-33.88,150.95
"2911","AULSW",-34.92,138.82
"2912","AULTE",-34.92,149.43
"2913","AULTG",-33.48,150.15
"2914","AULTN",-36.05,146.93
"2915","AULTO",-28.62,122.38
"2916","AULTT",-27.42,153.17
"2917","AULUB",-33.68,136.92
"121100","AULUC",-18.53057,146.33061
"2918","AULUM",-33.88,150.68
"2919","AULUN",-33.92,150.9
"2920","AULVA",-34.28,140.43
"2921","AULVH",-37.83,144.78
"2922","AULWD",-27.47,152.58
"2923","AULWN",-27.28,152.98
"2924","AULY6",-32.67,151.42
"2925","AULYD",-37.75,145.37
"2926","AULYF",-33.87,151.15
"2927","AUM2C",-37.92,145.4
"2928","AUM2D",-37.83,145.37
"2929","AUM3M",-38.27,145.02
"2930","AUM3N",-38.22,145.03
"2931","AUM4H",-27.23,153.02
"2932","AUM6Y",-37.72,145.12
"2933","AUM7K",-38.03,145.25
"2934","AUMAA",-12.4,130.9
"2935","AUMAD",-32.05,115.98
"2936","AUMAF",-37.97,146.98
"2937","AUMAH",-33.42,151.42
"2938","AUMAJ",-35.27,149.2
"2939","AUMAK",-33.68,150.83
"2940","AUMAL",-26.75,152.85
"2941","AUMAN",-37.8,145.1
"2942","AUMAO",-33.75,150.9
"2943","AUMAR",-33.92,151.17
"2944","AUMAS",-33.92,151.18
"2945","AUMAT",-33.95,151.23
"2946","AUMAU",-33.93,151.23
"2947","AUMAV",-28,152.23
"2948","AUMAW",-34.8,138.6
"2949","AUMAY",-41.38,147.13
"2950","AUMB2",-37.08,139.78
"2951","AUMBA",-34.63,117.67
"2952","AUMBC",-32.03,115.82
"2953","AUMBD",-32.75,151.1
"2954","AUMBE",-34.85,138.78
"2955","AUMBK",-37.78,145.3
"2956","AUMBM",-34.97,149.03
"2957","AUMBU",-30.92,118.2
"2958","AUMBX",-35.8,150.23
"2959","AUMBY",-37.78,144.88
"2960","AUMCB",-33.78,150.83
"2961","AUMCC",-27.63,153.23
"2962","AUMCD",-28.8,153.38
"2963","AUMCG",-33.6,150.83
"2964","AUMCL",-35.23,138.53
"2965","AUMCN",-36.33,140.17
"2966","AUMCP",-33.83,151.2
"2967","AUMCR",-38.33,144.92
"2968","AUMCS",-35.37,138.62
"2969","AUMD2",-37.38,144.6
"2970","AUMD9",-35.17,138.83
"2971","AUMDB",-34.83,138.68
"2972","AUMDC",-38.02,145.08
"2973","AUMDE",-34.82,140.22
"2974","AUMDG",-19.3,146.78
"2975","AUMDI",-27.98,153.37
"2976","AUMDL",-33.97,151.08
"2977","AUMDN",-37.42,144.57
"2978","AUMDO",-37.78,144.85
"2979","AUMDP",-32.2,115.8
"2980","AUMDS",-34.9,138.63
"2981","AUMDU",-32.53,115.75
"2982","AUMED",-34.92,138.55
"2983","AUMEE",-37.85,144.08
"2984","AUMEL",-37.82,144.97
"2985","AUMEN",-37.6,145.1
"2986","AUMEP",-33.82,151.07
"2987","AUMER",-31.17,142.07
"2988","AUMEZ",-38.18,145.08
"2989","AUMFC",-37.07,146.07
"2990","AUMFD",-33.77,151.1
"2991","AUMFX",-27.1,152.93
"2992","AUMGE",-27.53,153.08
"2993","AUMGO",-34.45,150.43
"2994","AUMGR",-33.95,115.08
"2995","AUMGS",-27.47,153.07
"2996","AUMHA",-35.82,144.88
"2997","AUMHE",-31.58,115.97
"2998","AUMHL",-35.2,149.13
"2999","AUMHW",-31.92,115.83
"123100","AUMIB",-13.85825,136.41939
"3000","AUMID",31.88,-115.98
"3001","AUMII",-28.07,153.43
"3002","AUMIK",-37.55,144.87
"3003","AUMIP",-37.52,143.8
"3004","AUMIT",-37.82,145.2
"3005","AUMKG",-33.65,151.13
"3006","AUMKY",-21.15,149.2
"3007","AUMLA",-35.72,149.15
"3008","AUMLE",-28.18,116.73
"3009","AUMLF",-35.22,138.58
"3010","AUMLG",-33.1,148.87
"3011","AUMLI",-11.55,130.93
"3012","AUMLL",-26.68,153.13
"3013","AUMLN",-34.7,150.02
"3014","AUMLP",-37.67,145.07
"3015","AUMLS",-19.28,146.73
"3016","AUMLT",-35.52,138.7
"3017","AUMLY",-31.88,115.88
"3018","AUMMB",-33.48,151.42
"3019","AUMMG",-28.05,117.83
"3020","AUMML",-36.75,144.72
"3021","AUMMN",-27.87,151.27
"3022","AUMMP",-32,115.75
"3023","AUMMT",-34.92,138.72
"3024","AUMMY",-37.18,144.38
"3025","AUMNA",-35.2,138.48
"3026","AUMND",-34.03,151.1
"3027","AUMNH",-42.85,147.3
"3028","AUMNI",-34.02,151.02
"3029","AUMNL",-30.75,150.72
"3030","AUMNN",-31.82,116.03
"3031","AUMNP",-37.77,144.92
"3032","AUMNR",-33.92,138.72
"3033","AUMNT",-34.03,150.85
"3034","AUMOA",-36.12,144.77
"3035","AUMOC",-34.47,139.12
"3036","AUMOD",-19.77,116.6
"3037","AUMOE",-38.17,146.27
"3038","AUMOK",-34.28,140.35
"3039","AUMOL",-38.07,144.3
"3040","AUMON",-13.08,124.08
"3041","AUMOR",-38.23,146.4
"125100","AUMOU",-17.59912,146.12485
"3042","AUMOW",-41.38,147.13
"3043","AUMOZ",-33.48,150.95
"3044","AUMPE",-33.93,151.15
"3045","AUMPK",-33.9,151.22
"3046","AUMPL",-34.78,139.03
"3047","AUMPT",-32.73,151.63
"3048","AUMPV",-36.4,145.35
"3049","AUMQI",-54.48,158.93
"3050","AUMR4",-34.83,147.37
"3051","AUMRA",-30.63,116
"3052","AUMRB",-33.93,150.93
"3053","AUMRD",-31.48,118.28
"3054","AUMRH",-38.35,145.08
"3055","AUMRI",-27.47,153.1
"3056","AUMRK",-33.77,151.12
"3057","AUMRN",-36.73,144.13
"3058","AUMRO",-38.22,145.12
"3059","AUMRR",-37.37,145.53
"3060","AUMRU",-28.8,114.67
"3061","AUMRY",-32.85,151.67
"3062","AUMSA",-33.83,151.25
"3063","AUMSH",-34.23,140.57
"3064","AUMSK",-37.38,144.13
"3065","AUMSN",-31.85,116.02
"3066","AUMSP",-34.4,151.35
"3067","AUMST",-32.93,151.72
"3068","AUMT9",-37.68,144.58
"3069","AUMTA",-34.8,148.12
"3070","AUMTC",-33.78,115.12
"3071","AUMTH",-27,153.25
"3072","AUMTN",-37.98,145.07
"3073","AUMTO",-34.77,146.92
"3074","AUMTP",-37.52,143.8
"3075","AUMTR",-37.82,145.35
"3076","AUMTS",-19.25,146.73
"3077","AUMTW",-37.88,145.13
"3078","AUMTY",-31.93,115.87
"3079","AUMUA",-36.37,140.68
"3080","AUMUB",-35.12,139.27
"3081","AUMUC",-36.63,145.23
"3082","AUMUD",-28.08,153.37
"3083","AUMUJ",-33.43,116.3
"3084","AUMUK",-37.88,145.4
"3085","AUMUL",-37.92,145.18
"3086","AUMUR",-28.32,153.4
"3087","AUMUT",-19.27,116.6
"3088","AUMV2",-35.13,138.52
"3089","AUMVA",-34.55,150.37
"3090","AUMVL",-32.82,134.4
"3091","AUMVN",-37.87,145.03
"3092","AUMVP",-38.18,144.43
"3093","AUMVR",-34.95,138.6
"3094","AUMWA",-36,146
"3095","AUMWO",-27.67,153.13
"3096","AUMYD",-33.83,150.98
"3097","AUMYM",-26.68,153.12
"3098","AUMYR",-35.05,138.75
"3099","AUMYS",-31.93,115.88
"3100","AUMYU",-36.6,146.4
"3101","AUN2N",-37.98,145.32
"3102","AUN6D",-33.32,151.23
"3103","AUN7K",-37.52,145.35
"3104","AUNAB",-32.18,115.77
"3105","AUNAG",-36.78,145.17
"3106","AUNAM",-37.33,144.6
"3107","AUNAN",-37.55,140.78
"3108","AUNB2",-33.8,151.22
"3109","AUNBA",-27.2,152.97
"3110","AUNBC",-28.03,153.17
"3111","AUNBE",-32.07,118.38
"3112","AUNBP",-37.97,145.17
"3113","AUNBQ",-31.87,115.75
"3114","AUNBW",-37.8,145.08
"3115","AUNCC",-33.75,151.28
"3116","AUNCT",-33.9,151.12
"3117","AUNDD",-31.98,115.8
"3118","AUNDH",-27.4,153.05
"3119","AUNDW",-35.13,138.5
"3120","AUNEQ",-34.2,146.03
"3121","AUNER",-27.98,153.33
"3122","AUNEU",-32.68,148.93
"3123","AUNEW",-38.17,146.23
"3124","AUNFM",-32.05,115.75
"3125","AUNFR",-27.47,153.03
"3126","AUNGH",-21.48,114
"3127","AUNGT",-27.38,153.07
"3128","AUNHA",-31.65,116.67
"3129","AUNHU",-12.18,136.78
"3130","AUNIN",-27.05,153.08
"3131","AUNIV",-21.4,114.08
"3132","AUNKU",-34.77,117.73
"3133","AUNLE",-28.8,153.28
"3134","AUNLK",-42.78,147.07
"3135","AUNLN",-34.03,150.73
"3136","AUNLT",-32.92,151.7
"3137","AUNM2",-33.77,151.27
"3138","AUNMA",-27.43,153.02
"3139","AUNME",-37.78,144.93
"3140","AUNMV",-33.67,151.3
"3141","AUNNG",-38.08,145.57
"3142","AUNNN",-33.67,151.3
"3143","AUNNR",-35.18,138.5
"3144","AUNNU",-33.98,115.77
"3145","AUNOE",-38.1,144.35
"3146","AUNOM",-33.78,150.98
"3147","AUNOR",-34.67,149.73
"3148","AUNRB",-33.7,151.28
"3149","AUNRC",-33.77,151.28
"3150","AUNRD",-22.58,150.7
"3151","AUNRE",-33.8,151.12
"3152","AUNRN",-32.53,152.15
"3153","AUNRP",-34.47,138.98
"3154","AUNRW",-38.03,145.3
"3155","AUNS3",-30.45,152.88
"3156","AUNS8",-33.77,151.13
"3157","AUNS9",-33.88,151
"3158","AUNSB",-32.75,151.1
"3159","AUNSS",-32.03,138.9
"3160","AUNST",-41.43,147.17
"3161","AUNSW",-33.7,150.55
"3162","AUNSY",-33.83,151.2
"3163","AUNTA",-36.5,149.28
"3164","AUNTB",-27.92,153.2
"3165","AUNTF",-34.62,116.12
"3166","AUNTH",-37.9,145.12
"126100","AUNTL",-32.91905,151.76552
"3167","AUNUI",-33.77,150.82
"3168","AUNUK",-33.35,151.58
"3169","AUNUM",-36.1,145.43
"3170","AUNVN",-34.8,138.48
"3171","AUNWA",-33.73,151.27
"3172","AUNWD",-37.82,145.17
"3173","AUNWP",-33.67,151.32
"3174","AUNWT",-37.85,144.88
"3175","AUNWV",-33.25,151.45
"3176","AUO8O",-35.08,138.53
"3177","AUOAK",-32.2,115.92
"3178","AUOBO",-33.7,149.87
"3179","AUOBR",-35.92,145.65
"3180","AUOCN",-31.95,116.18
"3181","AUOGA",-33.83,150.65
"3182","AUOGV",-38.27,144.53
"3183","AUOHB",-34.77,138.5
"3184","AUOKF",-34.55,150.82
"3185","AUOKH",-19.58,116.45
"3186","AUOKU",-25.52,152.63
"3187","AUOLH",-37.9,145.08
"3188","AUOLL",-37.77,145.25
"3189","AUOMN",-27.43,153.07
"3190","AUONS",-21.65,115.1
"3191","AUOOC",-37.8,144.98
"3192","AUOOD",-33.95,151.05
"3193","AUOOK",-32.27,150.9
"3194","AUOOL",-28.15,153.5
"3195","AUOOY",-37.8,144.9
"3196","AUOPH",-35.13,138.55
"3197","AUORD",-36.55,146.73
"3198","AUORK",-37.72,144.85
"3199","AUORM",-27.78,153.27
"3200","AUORN",-33.87,151.1
"3201","AUORY",-33.77,150.83
"3202","AUOSE",-35.37,146.72
"3203","AUOSF",-33.53,149.73
"3204","AUOSP",-31.9,115.83
"3205","AUOTO",-34.83,138.53
"3206","AUOTR",-41.15,146.55
"3207","AUOTT",-34.83,138.53
"3208","AUOUH",-34.77,138.5
"3209","AUOUK",-36.72,145.22
"3210","AUOUR",-24.57,150.02
"3211","AUOWA",-28.02,153.4
"3212","AUOWF",-35.1,138.55
"3213","AUOYL",-33.72,151.3
"3214","AUP5U",-38.17,145.52
"3215","AUP6D",-38.03,145.1
"3216","AUP8N",-33.87,151.25
"3217","AUP8S",-32.58,151.6
"3218","AUPAD",-33.37,150
"3219","AUPAG",-33.88,151.22
"3220","AUPAK",-34.92,138.62
"3221","AUPAL",-12.47,130.83
"3222","AUPAW",-26.68,152.97
"3223","AUPBE",-34.45,116.03
"3224","AUPBH",-28.12,153.47
"3225","AUPBN",-27.38,153.17
"3226","AUPBR",-41.83,147.17
"3227","AUPBU",-36.93,149.87
"127100","AUPBY",-32.99192,137.76428
"3228","AUPCH",-37.78,144.95
"3229","AUPCN",-33.35,115.68
"3230","AUPCR",-37.48,145.28
"3231","AUPDA",-28.48,115.77
"3232","AUPDI",-29.27,114.93
"3233","AUPDL",-34.78,138.63
"3234","AUPEE",-37.25,144.53
"3235","AUPEG",-41.12,146.07
"3236","AUPEN",-33.8,150.95
"3237","AUPER",-31.95,115.85
"3238","AUPET",-27.27,152.98
"128100","AUPEX",-21.95633,114.13671
"129100","AUPGI",-35.0214,137.75838
"3239","AUPGT",-21.18,149.07
"3240","AUPGW",-34.62,138.48
"3241","AUPGY",-32.53,117.08
"130100","AUPHE",-20.31922,118.58396
"3242","AUPHI",-32.68,148.03
"3243","AUPHP",-38.12,144.43
"3244","AUPHR",-37.85,145
"131100","AUPHU",-43.1586,146.97602
"3245","AUPI8",-34.98,138.73
"3246","AUPIA",-25.3,152.83
"3247","AUPIC",-34.18,150.6
"3248","AUPIM",-27.82,153.3
"3249","AUPIS",-38.48,145.23
"3250","AUPJA",-32.63,115.88
"3251","AUPKH",-33.97,151.05
"132100","AUPKL",-34.46974,150.89456
"3252","AUPKM",-38.07,145.47
"3253","AUPKN",-10.58,142.22
"3254","AUPKV",-37.78,144.95
"3255","AUPKY",-33.17,134.68
"133100","AUPLA",-40.85343,145.38087
"134100","AUPLO",-34.74006,135.87533
"3256","AUPLW",-34.75,138.6
"3257","AUPLY",-34.95,138.55
"3258","AUPME",-33.75,151.15
"3259","AUPMG",-32,115.75
"3260","AUPNA",-27.42,153.12
"3261","AUPNF",-34.7,138.63
"3262","AUPNG",-35.05,143.3
"3263","AUPNH",-33.73,151.07
"3264","AUPNL",-37.38,140.82
"3265","AUPOR",-37.83,144.93
"3266","AUPOZ",-28.53,151.88
"3267","AUPPC",-27.93,153.3
"135100","AUPPI",-33.17085,138.01269
"3268","AUPPO",-36.7,140.57
"3269","AUPPT",-33.8,150.92
"136100","AUPQQ",-31.42666,152.89481
"3270","AUPQT",-34.35,150.48
"3271","AUPR8",-34.65,117.9
"3272","AUPRE",-33.93,150.87
"3273","AUPRG",-34.17,140.78
"3274","AUPRH",-33.77,150.68
"3275","AUPRK",-34.83,138.6
"3276","AUPRL",-13.78,123.32
"3277","AUPRO",-34.88,138.58
"3278","AUPRS",-27.65,153.03
"3279","AUPRW",-34.18,138.15
"137100","AUPSM",-20.63755,117.19288
"3280","AUPSO",-37.73,145
"138100","AUPST",-35.1104,138.47131
"3281","AUPSV",-37.72,144.93
"139100","AUPTD",-41.10773,146.82309
"140100","AUPTJ",-38.35444,141.6157
"141100","AUPTL",-23.58546,150.86111
"3282","AUPTN",-35.15,138.47
"3283","AUPTO",-37.67,143.48
"3284","AUPTR",-33.88,151.15
"3285","AUPTW",-35.27,138.45
"3286","AUPU7",-32.78,151.28
"3287","AUPUF",-12.28,124.32
"142100","AUPUG",-32.49392,137.76029
"3288","AUPUK",-33.68,151.3
"3289","AUPUN",-33.93,151.05
"3290","AUPVE",-32.2,115.78
"3291","AUPVL",-27.53,152.88
"3292","AUPWA",-37.7,144.47
"143100","AUPWL",-20.62781,117.14092
"3293","AUPWT",-33.92,138.63
"3294","AUPWY",-33.82,150.92
"3295","AUPY4",-36.6,140.48
"3296","AUPYE",-37.08,143.48
"3297","AUPYR",-33.87,151.18
"3298","AUPYT",-21.15,149.02
"3299","AUQBE",-36.67,149.83
"3300","AUQBW",-35.72,150.18
"3301","AUQBY",-35.35,149.23
"3302","AUQDB",-27.6,153.32
"3303","AUQDI",-32.02,117.4
"144100","AUQDN",-37.07123,149.90925
"3304","AUQEL",-32.57,148.95
"3305","AUQHC",-17.37,145.6
"3306","AUQLC",-34.12,139.87
"3307","AUQLD",-27.93,152.62
"3308","AUQLE",-34.57,146.4
"3309","AUQMB",-28.55,151.95
"3310","AUQQD",-27.7,153.2
"3311","AUQRM",-32.23,148.23
"3312","AUQRR",-31.7,147.8
"3313","AUQRX",-36.22,150.05
"3314","AUQTH",-36.5,148.3
"3315","AUQU4",-27.58,153.05
"3316","AUQUA",-41.2,146.33
"3317","AUQUE",-27.47,153.03
"3318","AUQUI",-33.67,115.13
"3319","AUQUK",-31.03,151.72
"3320","AUR2A",-33.78,150.95
"3321","AUR2E",-33.73,151.12
"3322","AUR2R",-33.87,150.65
"3323","AUR2W",-33.85,151.28
"3324","AUR4A",-38.35,145.13
"3325","AUR4S",-33.83,151.02
"3326","AUR4W",-38,145.35
"3327","AUR5H",-37.92,145.35
"3328","AUR5M",-34.12,148.88
"3329","AUR5T",-38.4,145.87
"3330","AUR5W",-33.82,151.17
"145100","AURAB",-35.52642,138.19019
"3331","AURAE",-32.58,115.83
"3332","AURAF",-11.27,132.38
"3333","AURAI",-34.95,138.75
"3334","AURAV",-33.58,120.03
"3335","AURAY",-32.75,151.75
"3336","AURBG",-33.72,138.13
"3337","AURBK",-36.93,143.32
"146100","AURBU",-20.59831,117.17563
"3338","AURCF",-27.23,153.1
"3339","AURCL",-23.48,145.65
"3340","AURCT",-36.37,144.7
"3341","AURD2",-37.47,144.68
"3342","AURDB",-27.6,152.87
"3343","AURDG",-38.38,144.97
"3344","AURDH",-33.02,151.72
"3345","AURDL",-37.02,144.52
"3346","AURDP",-33.85,151.13
"3347","AURDS",-33.83,151.08
"3348","AURED",-33.88,151.2
"3349","AUREL",-41.83,147.33
"3350","AURES",-37.72,145
"3351","AUREV",-33.95,151
"3352","AUREY",-33.87,151.25
"3353","AURFD",-32.72,151.53
"3354","AURFF",-34.32,142.18
"3355","AURFL",-34.58,138.93
"3356","AURFU",-37.88,145.3
"3357","AURGP",-33.88,151.02
"3358","AURGY",-34.5,117
"3359","AURH8",-38.35,145.02
"3360","AURHA",-27.58,152.95
"3361","AURHI",-20.32,148.5
"3362","AURHM",-37.83,145
"3363","AURIA",-37.17,144.6
"3364","AURIC",-34.93,138.57
"3365","AURID",-34.82,138.7
"3366","AURIV",-34.17,138.75
"3367","AURKB",-42.9,147.43
"3368","AURKK",-37.72,144.65
"3369","AURKW",-33.87,151.05
"3370","AURLL",-36.1,138.53
"3371","AURLT",-32.12,116.07
"3372","AURLW",-38.18,144.48
"3373","AURMD",-42.73,147.43
"3374","AURMR",-34.15,139.98
"3375","AURMS",-37.35,144.75
"3376","AURMV",-32.87,151.5
"3377","AURNB",-23.17,150.78
"3378","AURNG",-38.42,143.6
"3379","AURNW",-33.92,151.23
"3380","AUROB",-37.18,139.75
"3381","AUROC",-35.27,147.12
"3382","AUROD",-33.95,151.13
"147100","AUROK",-23.38039,150.55963
"3383","AUROM",-32.28,115.72
"3384","AURON",-37.73,145.07
"3385","AUROS",-33.8,151
"3386","AUROT",-32.75,151.33
"3387","AUROW",-38.37,144.87
"3388","AUROZ",-33.85,151.17
"3389","AURPA",-34.87,138.5
"3390","AURRK",-42,148.07
"3391","AURRO",-34.42,139.12
"3392","AURST",-33.73,151.1
"3393","AURTA",-32.85,138.03
"3394","AURTG",-36.05,146.47
"3395","AURTO",-34.58,150.6
"148100","AURTS",-31.99477,115.53813
"3396","AURV7",-27.37,152.17
"3397","AURVE",-33.78,151.18
"3398","AURVS",-33.68,150.87
"3399","AURVV",-29.73,120.53
"3400","AURWD",-37.82,145.23
"3401","AURWE",-37.92,145.23
"3402","AURWL",-41.2,146.9
"3403","AURYC",-28.1,153.4
"3404","AURYD",-33.8,151.08
"3405","AURYE",-33.82,151.1
"3406","AURYK",-34.87,138.57
"3407","AURYM",-33.8,151.02
"3408","AURYP",-33.5,123.98
"3409","AURZC",-27.55,153.02
"3410","AURZL",-33.67,150.9
"3411","AUS2A",-38.13,145.33
"3412","AUS2E",-37.35,144.97
"3413","AUS2M",-37.53,144.98
"3414","AUS2R",-38.05,145.12
"3415","AUS2V",-38.17,145.3
"3416","AUS3B",-37.77,145
"3417","AUS3E",-38.03,145.12
"3418","AUS3J",-38.53,145.65
"3419","AUS3N",-37.62,145.18
"3420","AUS3W",-37.6,145.15
"3421","AUS4A",-35.07,138.6
"3422","AUS4E",-38.07,145.42
"3423","AUS4G",-37.7,145.18
"3424","AUS4H",-37.82,145.25
"3425","AUS4J",-37.8,145.23
"3426","AUS4R",-37.93,145.3
"3427","AUS4W",-37.9,145.12
"3428","AUS4Y",-38.13,145.52
"3429","AUS8N",-33.98,151.13
"3430","AUS9S",-33.95,150.92
"3431","AUSAD",-37.5,143.75
"3432","AUSAL",-34.77,138.63
"3433","AUSAO",-34.98,138.85
"3434","AUSAR",-38.32,144.73
"3435","AUSAT",-34.93,138.63
"3436","AUSAW",-34.08,138.78
"3437","AUSB2",-41.27,147.02
"3438","AUSBC",-31.95,115.8
"3439","AUSBH",-35.32,138.43
"3440","AUSBI",-34.5,147.88
"3441","AUSBK",-37.82,144.95
"3442","AUSBN",-27.47,153.02
"3443","AUSCB",-31.88,115.75
"3444","AUSCK",-40.98,145.58
"3445","AUSCL",-33.83,138.6
"3446","AUSCO",-41.17,147.52
"3447","AUSCS",-32.15,115.83
"3448","AUSCY",-37.9,145.22
"3449","AUSDH",-33.92,151.15
"3450","AUSEA",-42.12,148.07
"3451","AUSET",-34.9,138.52
"3452","AUSEY",-37.03,145.13
"3453","AUSFD",-34.48,138.9
"3454","AUSFE",-32.08,115.75
"3455","AUSFF",-27.4,153
"3456","AUSFI",-33.87,151.1
"3457","AUSFT",-32.03,115.77
"3458","AUSGD",-31.9,115.97
"3459","AUSGT",-32.87,151.7
"3460","AUSGV",-37.97,145.15
"3461","AUSGY",-37.62,145.27
"3462","AUSHG",-33.72,150.92
"3463","AUSHH",-34.58,150.87
"3464","AUSHI",-33.4,149.17
"3465","AUSHS",-37.82,145.1
"3466","AUSIL",-33.83,151.05
"3467","AUSKA",-11.75,142.02
"3468","AUSLK",-37.58,145.38
"3469","AUSLM",-37.83,144.95
"3470","AUSLN",-41.45,147.15
"3471","AUSLS",-41.47,147.2
"3472","AUSMD",-33.83,150.92
"3473","AUSMG",-34.05,151.25
"3474","AUSMN",-27.78,153
"3475","AUSMR",-27.55,152.95
"149100","AUSMT",-21.45933,115.02432
"3476","AUSMV",-38.22,145.17
"3477","AUSMY",-33.37,151.28
"3478","AUSNN",-31.67,115.72
"3479","AUSNP",-27.57,152.93
"3480","AUSNS",-33.92,151.08
"3481","AUSNY",-34.9,138.62
"3482","AUSOL",-34.52,138.82
"3483","AUSOM",-37.65,144.92
"3484","AUSOP",-33.85,151.07
"150100","AUSPB",-42.51002,147.91873
"3485","AUSPE",-32.17,116.3
"3486","AUSPG",-34.72,139.08
"3487","AUSPH",-31.98,115.87
"3488","AUSPL",-34.77,138.65
"3489","AUSPO",-41.22,146.35
"3490","AUSPS",-34.98,138.52
"3491","AUSPW",-37.83,144.88
"3492","AUSPY",-27.73,153.23
"3493","AUSRH",-38.42,145.05
"151100","AUSRN",-42.15396,145.32792
"3494","AUSRS",-37.73,144.73
"3495","AUSSD",-37.8,144.88
